country,state,city,station,last_update,latitude,longitude,pollutant_id,pollutant_min,pollutant_max,pollutant_avg
India,Andhra_Pradesh,Kadapa,"Yerramukkapalli, Kadapa - APPCB",21-04-2026 17:00,14.465052,78.824187,PM2.5,46,81,54
India,Andhra_Pradesh,Kadapa,"Yerramukkapalli, Kadapa - APPCB",21-04-2026 17:00,14.465052,78.824187,NO2,20,27,21
India,Andhra_Pradesh,Machilipatnam,"Srinivas Nagar Colony, Machilipatnam - APPCB",21-04-2026 17:00,16.186555,81.13219,NH3,3,5,5
India,Andhra_Pradesh,Machilipatnam,"Srinivas Nagar Colony, Machilipatnam - APPCB",21-04-2026 17:00,16.186555,81.13219,OZONE,30,44,38
India,Andhra_Pradesh,Nellore,"Ambedkar Nagar, Nellore - APPCB ",21-04-2026 17:00,14.438164,79.966814,PM2.5,27,64,37
India,Andhra_Pradesh,Nellore,"Ambedkar Nagar, Nellore - APPCB ",21-04-2026 17:00,14.438164,79.966814,CO,32,45,38
India,Andhra_Pradesh,Nellore,"Ambedkar Nagar, Nellore - APPCB ",21-04-2026 17:00,14.438164,79.966814,OZONE,4,48,32
India,Andhra_Pradesh,Rajamahendravaram,"Anand Kala Kshetram, Rajamahendravaram - APPCB",21-04-2026 17:00,16.9872867,81.7363176,SO2,3,8,6
India,Andhra_Pradesh,Visakhapatnam,"GVM Corporation, Visakhapatnam - APPCB",21-04-2026 17:00,17.72,83.3,PM2.5,13,73,40
India,Arunachal_Pradesh,Naharlagun,"Naharlagun, Naharlagun - APSPCB",21-04-2026 17:00,27.103358,93.679645,NO2,7,8,7
India,Arunachal_Pradesh,Naharlagun,"Naharlagun, Naharlagun - APSPCB",21-04-2026 17:00,27.103358,93.679645,CO,10,35,12
India,Assam,Byrnihat,"Central Academy for SFS, Byrnihat - PCBA",21-04-2026 17:00,26.071318,91.87488,PM10,44,150,78
India,Assam,Byrnihat,"Central Academy for SFS, Byrnihat - PCBA",21-04-2026 17:00,26.071318,91.87488,CO,34,97,57
India,Assam,Guwahati,"IITG, Guwahati - PCBA",21-04-2026 17:00,26.2028636,91.70046436,PM10,16,47,33
India,Assam,Guwahati,"Pan Bazaar, Guwahati - PCBA",21-04-2026 17:00,26.1875,91.744194,NO2,NA,NA,NA
India,Assam,Guwahati,"Pan Bazaar, Guwahati - PCBA",21-04-2026 17:00,26.1875,91.744194,SO2,NA,NA,NA
India,Assam,Guwahati,"Railway Colony, Guwahati - PCBA",21-04-2026 17:00,26.181742,91.78063,SO2,2,5,3
India,Assam,Nagaon,"Christianpatty, Nagaon - PCBA",21-04-2026 17:00,26.349082,92.68449,NH3,4,4,4
India,Assam,Nalbari,"Bata Chowk, Nalbari - PCBA",21-04-2026 17:00,26.446912,91.439057,PM2.5,12,54,32
India,Assam,Silchar,"Tarapur, Silchar - PCBA",21-04-2026 17:00,24.82827,92.79525,NH3,1,1,1
India,Assam,Silchar,"Tarapur, Silchar - PCBA",21-04-2026 17:00,24.82827,92.79525,SO2,4,7,6
India,Assam,Sivasagar,"Girls College, Sivasagar - PCBA",21-04-2026 17:00,26.987634,94.636574,PM10,24,38,30
India,Assam,Sivasagar,"Girls College, Sivasagar - PCBA",21-04-2026 17:00,26.987634,94.636574,NH3,5,7,6
India,Bihar,Bhagalpur,"Mayaganj, Bhagalpur - BSPCB",21-04-2026 17:00,25.265194,87.012947,NH3,6,8,7
India,Bihar,Bihar Sharif,"D M Colony, Bihar Sharif - BSPCB",21-04-2026 17:00,25.204762,85.51496,PM2.5,20,107,57
India,Bihar,Bihar Sharif,"D M Colony, Bihar Sharif - BSPCB",21-04-2026 17:00,25.204762,85.51496,CO,26,118,51
India,Bihar,Gaya,"Kareemganj, Gaya - BSPCB",21-04-2026 17:00,24.792403,84.992416,SO2,31,48,41
India,Bihar,Gaya,"Kareemganj, Gaya - BSPCB",21-04-2026 17:00,24.792403,84.992416,CO,2,34,6
India,Bihar,Gaya,"SFTI Kusdihra, Gaya - BSPCB",21-04-2026 17:00,24.762518,84.982348,PM2.5,50,86,65
India,Bihar,Gaya,"SFTI Kusdihra, Gaya - BSPCB",21-04-2026 17:00,24.762518,84.982348,SO2,7,8,8
India,Bihar,Hajipur,"Industrial Area, Hajipur - BSPCB",21-04-2026 17:00,25.697189,85.2459,NO2,10,23,15
India,Andhra_Pradesh,Tirumala,"Toll Gate, Tirumala - APPCB",21-04-2026 17:00,13.67,79.35,NH3,3,4,3
India,Andhra_Pradesh,Tirupati,"Vaikuntapuram, Tirupati - APPCB",21-04-2026 17:00,13.615387,79.40923,PM10,64,481,134
India,Andhra_Pradesh,Tirupati,"Vaikuntapuram, Tirupati - APPCB",21-04-2026 17:00,13.615387,79.40923,NH3,5,6,6
India,Andhra_Pradesh,Tirupati,"Vaikuntapuram, Tirupati - APPCB",21-04-2026 17:00,13.615387,79.40923,SO2,6,15,8
India,Andhra_Pradesh,Vijayawada,"HB Colony, Vijayawada - APPCB",21-04-2026 17:00,16.536107,80.594233,CO,17,48,34
India,Andhra_Pradesh,Vijayawada,"Kanuru, Vijayawada - APPCB",21-04-2026 17:00,16.486692,80.699436,PM2.5,NA,NA,NA
India,Andhra_Pradesh,Vijayawada,"Kanuru, Vijayawada - APPCB",21-04-2026 17:00,16.486692,80.699436,NH3,NA,NA,NA
India,Andhra_Pradesh,Vijayawada,"Rajiv Gandhi Park, Vijayawada - APPCB",21-04-2026 17:00,16.509717,80.612222,PM10,38,83,47
India,Andhra_Pradesh,Amaravati,"Secretariat, Amaravati - APPCB",21-04-2026 17:00,16.5150833,80.5181667,PM2.5,8,69,28
India,Andhra_Pradesh,Amaravati,"Secretariat, Amaravati - APPCB",21-04-2026 17:00,16.5150833,80.5181667,OZONE,10,88,62
India,Andhra_Pradesh,Anantapur,"Gulzarpet, Anantapur - APPCB",21-04-2026 17:00,14.675886,77.593027,PM2.5,55,134,64
India,Andhra_Pradesh,Chittoor,"Gangineni Cheruvu, Chittoor - APPCB",21-04-2026 17:00,13.20488,79.097889,NH3,5,7,5
India,Andhra_Pradesh,Eluru,"District Court, Eluru - APPCB",21-04-2026 17:00,16.711754,81.092095,NO2,6,26,12
India,Andhra_Pradesh,Eluru,"District Court, Eluru - APPCB",21-04-2026 17:00,16.711754,81.092095,NH3,1,2,1
India,Bihar,Katihar,"Mirchaibari, Katihar - BSPCB",21-04-2026 17:00,25.560083,87.553265,PM2.5,NA,NA,NA
India,Bihar,Katihar,"Mirchaibari, Katihar - BSPCB",21-04-2026 17:00,25.560083,87.553265,CO,62,98,78
India,Bihar,Manguraha,"Forest Rest House, Manguraha - BSPCB",21-04-2026 17:00,27.308328,84.531742,OZONE,8,13,10
India,Bihar,Motihari,"Gandak Colony, Motihari - BSPCB",21-04-2026 17:00,26.63086,84.90051,PM2.5,53,318,132
India,Bihar,Munger,"Town Hall, Munger - BSPCB",21-04-2026 17:00,25.376776,86.471523,PM10,39,109,70
India,Bihar,Muzaffarpur,"Muzaffarpur Collectorate, Muzaffarpur - BSPCB",21-04-2026 17:00,26.1209,85.3647,PM2.5,70,112,86
India,Bihar,Patna,"DRM Office Danapur, Patna - BSPCB",21-04-2026 17:00,25.586562,85.043586,PM10,105,402,182
India,Bihar,Patna,"DRM Office Danapur, Patna - BSPCB",21-04-2026 17:00,25.586562,85.043586,NO2,34,42,38
India,Bihar,Patna,"Govt. High School Shikarpur, Patna - BSPCB",21-04-2026 17:00,25.592539,85.227158,PM10,120,346,206
India,Bihar,Bettiah,"Kamalnath Nagar, Bettiah - BSPCB",21-04-2026 17:00,26.80365,84.51954,CO,19,70,27
India,Bihar,Bhagalpur,"DM Office_Kachari Chowk, Bhagalpur - BSPCB",21-04-2026 17:00,25.251013,86.989001,PM10,65,188,106
India,Bihar,Bhagalpur,"DM Office_Kachari Chowk, Bhagalpur - BSPCB",21-04-2026 17:00,25.251013,86.989001,NH3,1,1,1
India,Bihar,Bhagalpur,"DM Office_Kachari Chowk, Bhagalpur - BSPCB",21-04-2026 17:00,25.251013,86.989001,SO2,30,102,69
India,Bihar,Araria,"Kharahiya Basti, Araria - BSPCB",21-04-2026 17:00,26.146529,87.454184,SO2,36,64,48
India,Bihar,Araria,"Kharahiya Basti, Araria - BSPCB",21-04-2026 17:00,26.146529,87.454184,OZONE,10,11,10
India,Bihar,Arrah,"New DM Office, Arrah - BSPCB",21-04-2026 17:00,25.5626095,84.663264,PM10,24,153,77
India,Bihar,Saharsa,"Police Line, Saharsa - BSPCB",21-04-2026 17:00,25.892357,86.590325,SO2,16,20,18
India,Bihar,Saharsa,"Police Line, Saharsa - BSPCB",21-04-2026 17:00,25.892357,86.590325,OZONE,10,51,41
India,Bihar,Samastipur,"DM Office_Kasipur, Samastipur - BSPCB",21-04-2026 17:00,25.859655,85.77944,OZONE,7,10,8
India,Bihar,Sasaram,"Dada Peer, Sasaram - BSPCB",21-04-2026 17:00,24.952822,84.002396,PM2.5,16,64,36
India,Bihar,Sasaram,"Dada Peer, Sasaram - BSPCB",21-04-2026 17:00,24.952822,84.002396,PM10,68,146,99
India,Bihar,Sasaram,"Dada Peer, Sasaram - BSPCB",21-04-2026 17:00,24.952822,84.002396,NO2,1,8,3
India,Bihar,Sasaram,"Dada Peer, Sasaram - BSPCB",21-04-2026 17:00,24.952822,84.002396,SO2,NA,NA,NA
India,Bihar,Sasaram,"Dada Peer, Sasaram - BSPCB",21-04-2026 17:00,24.952822,84.002396,OZONE,12,25,18
India,Bihar,Siwan,"Chitragupta Nagar, Siwan - BSPCB",21-04-2026 17:00,26.2271665,84.3570427,PM2.5,47,117,64
India,Bihar,Siwan,"Chitragupta Nagar, Siwan - BSPCB",21-04-2026 17:00,26.2271665,84.3570427,SO2,4,8,7
India,Chandigarh,Chandigarh,"Sector 22, Chandigarh - CPCC",21-04-2026 17:00,30.735567,76.775714,PM2.5,23,88,55
India,Chandigarh,Chandigarh,"Sector 22, Chandigarh - CPCC",21-04-2026 17:00,30.735567,76.775714,PM10,58,147,95
India,Chandigarh,Chandigarh,"Sector-25, Chandigarh - CPCC",21-04-2026 17:00,30.751462,76.762879,NO2,NA,NA,NA
India,Chandigarh,Chandigarh,"Sector-25, Chandigarh - CPCC",21-04-2026 17:00,30.751462,76.762879,CO,4,12,8
India,Chhattisgarh,Raipur,"Krishak Nagar, Raipur - CECB",21-04-2026 17:00,21.237755,81.705301,OZONE,23,33,28
India,Chhattisgarh,Raipur,"Siltara Phase-II, Raipur - CECB",21-04-2026 17:00,21.371751,81.664929,PM2.5,23,74,54
India,Chhattisgarh,Tumidih,"OP Jindal Industrial Park, Tumidih - CECB",21-04-2026 17:00,22.06631475,83.33820077,OZONE,10,111,86
India,Delhi,Delhi,"Alipur, Delhi - DPCC",21-04-2026 17:00,28.815329,77.15301,PM2.5,27,325,117
India,Delhi,Delhi,"Alipur, Delhi - DPCC",21-04-2026 17:00,28.815329,77.15301,OZONE,10,40,35
India,Delhi,Delhi,"Anand Vihar, Delhi - DPCC",21-04-2026 17:00,28.647622,77.315809,PM10,145,500,256
India,Delhi,Delhi,"Ashok Vihar, Delhi - DPCC",21-04-2026 17:00,28.695381,77.181665,PM2.5,30,313,121
India,Chandigarh,Chandigarh,"Sector-53, Chandigarh - CPCC",21-04-2026 17:00,30.719859,76.738637,NH3,18,23,20
India,Chhattisgarh,Bhilai,"32Bungalows, Bhilai - CECB",21-04-2026 17:00,21.194815,81.31477,PM10,27,51,35
India,Chhattisgarh,Bhilai,"Civic Center, Bhilai - Bhilai Steel Plant",21-04-2026 17:00,21.185571,81.343175,PM10,32,59,44
India,Chhattisgarh,Bhilai,"Civic Center, Bhilai - Bhilai Steel Plant",21-04-2026 17:00,21.185571,81.343175,NO2,13,14,13
India,Chhattisgarh,Bhilai,"Civic Center, Bhilai - Bhilai Steel Plant",21-04-2026 17:00,21.185571,81.343175,OZONE,10,20,17
India,Chhattisgarh,Bilaspur,"Mangala, Bilaspur - NTPC",21-04-2026 17:00,22.08815,82.13737,NO2,10,154,28
India,Chhattisgarh,Bilaspur,"Mangala, Bilaspur - NTPC",21-04-2026 17:00,22.08815,82.13737,CO,1,66,27
India,Delhi,Delhi,"JNU, Delhi - DPCC",21-04-2026 17:00,28.540721,77.168544,PM2.5,33,303,125
India,Delhi,Delhi,"JNU, Delhi - DPCC",21-04-2026 17:00,28.540721,77.168544,PM10,79,238,158
India,Delhi,Delhi,"JNU, Delhi - DPCC",21-04-2026 17:00,28.540721,77.168544,NO2,2,82,31
India,Delhi,Delhi,"JNU, Delhi - DPCC",21-04-2026 17:00,28.540721,77.168544,SO2,NA,NA,NA
India,Delhi,Delhi,"Jahangirpuri, Delhi - DPCC",21-04-2026 17:00,28.73282,77.170633,NO2,36,116,78
India,Delhi,Delhi,"Jahangirpuri, Delhi - DPCC",21-04-2026 17:00,28.73282,77.170633,OZONE,3,66,60
India,Delhi,Delhi,"Jawaharlal Nehru Stadium, Delhi - DPCC",21-04-2026 17:00,28.58028,77.233829,PM2.5,38,312,103
India,Delhi,Delhi,"Lodhi Road, Delhi - IMD",21-04-2026 17:00,28.5918245,77.2273074,PM2.5,47,255,87
India,Chhattisgarh,Kunjemura,"OP Jindal School, Kunjemura - CECB",21-04-2026 17:00,22.12665,83.483212,PM2.5,39,58,48
India,Chhattisgarh,Raipur,"AIIMS, Raipur - CECB",21-04-2026 17:00,21.258815,81.578979,PM2.5,20,42,31
India,Chhattisgarh,Raipur,"AIIMS, Raipur - CECB",21-04-2026 17:00,21.258815,81.578979,CO,25,42,34
India,Chhattisgarh,Raipur,"Bhatagaon New ISBT, Raipur - CECB",21-04-2026 17:00,21.219665,81.630094,NO2,25,35,30
India,Chhattisgarh,Raipur,"Bhatagaon New ISBT, Raipur - CECB",21-04-2026 17:00,21.219665,81.630094,CO,21,56,29
India,Chhattisgarh,Raipur,"Bhatagaon New ISBT, Raipur - CECB",21-04-2026 17:00,21.219665,81.630094,OZONE,1,6,3
India,Chhattisgarh,Raipur,"Krishak Nagar, Raipur - CECB",21-04-2026 17:00,21.237755,81.705301,NO2,NA,NA,NA
India,Chhattisgarh,Raipur,"Krishak Nagar, Raipur - CECB",21-04-2026 17:00,21.237755,81.705301,SO2,NA,NA,NA
India,Delhi,Delhi,"Burari Crossing, Delhi - IMD",21-04-2026 17:00,28.7256504,77.2011573,PM2.5,7,304,103
India,Delhi,Delhi,"Burari Crossing, Delhi - IMD",21-04-2026 17:00,28.7256504,77.2011573,PM10,119,291,174
India,Delhi,Delhi,"CRRI Mathura Road, Delhi - IMD",21-04-2026 17:00,28.5512005,77.2735737,OZONE,18,76,56
India,Delhi,Delhi,"Cantonment Area, Delhi - DPCC ",21-04-2026 17:00,28.594169,77.1251,PM2.5,20,58,36
India,Delhi,Delhi,"Cantonment Area, Delhi - DPCC ",21-04-2026 17:00,28.594169,77.1251,NH3,1,3,2
India,Delhi,Delhi,"Commonwealth Sports Complex, Delhi - DPCC",21-04-2026 17:00,28.615828,77.271992,NO2,9,103,53
India,Delhi,Delhi,"Commonwealth Sports Complex, Delhi - DPCC",21-04-2026 17:00,28.615828,77.271992,CO,30,76,38
India,Bihar,Patna,"Rajbansi Nagar, Patna - BSPCB",21-04-2026 17:00,25.599486,85.113666,NH3,2,3,3
India,Bihar,Patna,"Rajbansi Nagar, Patna - BSPCB",21-04-2026 17:00,25.599486,85.113666,SO2,8,16,13
India,Bihar,Purnia,"Mariam Nagar, Purnia - BSPCB",21-04-2026 17:00,25.366336,87.117468,PM10,50,69,62
India,Bihar,Purnia,"Mariam Nagar, Purnia - BSPCB",21-04-2026 17:00,25.366336,87.117468,NO2,5,7,6
India,Bihar,Purnia,"Mariam Nagar, Purnia - BSPCB",21-04-2026 17:00,25.366336,87.117468,SO2,17,17,17
India,Bihar,Rajgir,"Dangi Tola, Rajgir - BSPCB",21-04-2026 17:00,25.0328,85.41948,PM10,29,94,58
India,Bihar,Rajgir,"Dangi Tola, Rajgir - BSPCB",21-04-2026 17:00,25.0328,85.41948,NH3,3,3,3
India,Bihar,Rajgir,"Dangi Tola, Rajgir - BSPCB",21-04-2026 17:00,25.0328,85.41948,CO,34,52,42
India,Delhi,Delhi,"IIT Delhi, Delhi - IITM",21-04-2026 17:00,28.54246,77.191651,PM10,66,323,162
India,Delhi,Delhi,"IIT Delhi, Delhi - IITM",21-04-2026 17:00,28.54246,77.191651,CO,16,57,22
India,Delhi,Delhi,"ITO, Delhi - CPCB",21-04-2026 17:00,28.628624,77.24106,NO2,14,96,49
India,Delhi,Delhi,"IGI Airport (T3), Delhi - IMD",21-04-2026 17:00,28.5627763,77.1180053,CO,22,62,29
India,Delhi,Delhi,"IGI Airport (T3), Delhi - IMD",21-04-2026 17:00,28.5627763,77.1180053,OZONE,15,71,62
India,Delhi,Delhi,"Sirifort, Delhi - CPCB",21-04-2026 17:00,28.5504249,77.2159377,NH3,4,15,11
India,Delhi,Delhi,"Sirifort, Delhi - CPCB",21-04-2026 17:00,28.5504249,77.2159377,SO2,23,37,30
India,Delhi,Delhi,"Sirifort, Delhi - CPCB",21-04-2026 17:00,28.5504249,77.2159377,OZONE,12,28,23
India,Delhi,Delhi,"Sri Aurobindo Marg, Delhi - DPCC",21-04-2026 17:00,28.531346,77.190156,PM2.5,NA,NA,NA
India,Delhi,Delhi,"Sri Aurobindo Marg, Delhi - DPCC",21-04-2026 17:00,28.531346,77.190156,PM10,NA,NA,NA
India,Delhi,Delhi,"Talkatora Garden, Delhi - DPCC",21-04-2026 17:00,28.62181,77.1944633,PM10,88,252,139
India,Delhi,Delhi,"Talkatora Garden, Delhi - DPCC",21-04-2026 17:00,28.62181,77.1944633,NH3,3,9,5
India,Delhi,Delhi,"Talkatora Garden, Delhi - DPCC",21-04-2026 17:00,28.62181,77.1944633,OZONE,7,35,32
India,Delhi,Delhi,"Vivek Vihar, Delhi - DPCC",21-04-2026 17:00,28.672342,77.31526,NO2,26,113,60
India,Delhi,Delhi,"Vivek Vihar, Delhi - DPCC",21-04-2026 17:00,28.672342,77.31526,OZONE,17,73,65
India,Delhi,Delhi,"Wazirpur, Delhi - DPCC",21-04-2026 17:00,28.699793,77.165453,NH3,7,12,9
India,Gujarat,Gandhinagar,"IIPHG Lekawada, Gandhinagar - IITM",21-04-2026 17:00,23.243639,72.68994,OZONE,2,25,19
India,Gujarat,Mehsana,"Sadanand Nagar, Mehsana - Nexteng Enviro",21-04-2026 17:00,23.59315,72.372792,PM2.5,14,124,54
India,Gujarat,Nandesari,"GIDC, Nandesari - Nandesari Ind. Association",21-04-2026 17:00,22.410802,73.097923,NO2,18,312,87
India,Gujarat,Rajkot,"Mavdi, Rajkot - Nexteng Enviro ",21-04-2026 17:00,22.248853,70.776774,PM2.5,29,135,67
India,Gujarat,Rajkot,"Mavdi, Rajkot - Nexteng Enviro ",21-04-2026 17:00,22.248853,70.776774,CO,89,98,91
India,Gujarat,Surat,"Katargam, Surat - Nexteng Enviro",21-04-2026 17:00,21.217779,72.834787,PM2.5,15,89,55
India,Gujarat,Surat,"Katargam, Surat - Nexteng Enviro",21-04-2026 17:00,21.217779,72.834787,CO,39,54,40
India,Gujarat,Surat,"Katargam, Surat - Nexteng Enviro",21-04-2026 17:00,21.217779,72.834787,OZONE,11,12,12
India,Gujarat,Ahmedabad,"Chandkheda, Ahmedabad - IITM",21-04-2026 17:00,23.107969,72.574648,PM10,66,164,102
India,Gujarat,Ahmedabad,"Chandkheda, Ahmedabad - IITM",21-04-2026 17:00,23.107969,72.574648,NO2,5,111,24
India,Gujarat,Ahmedabad,"Gyaspur, Ahmedabad - IITM",21-04-2026 17:00,22.977134,72.553024,PM10,69,269,123
India,Gujarat,Ahmedabad,"Gyaspur, Ahmedabad - IITM",21-04-2026 17:00,22.977134,72.553024,CO,1,46,2
India,Gujarat,Ahmedabad,"Maninagar, Ahmedabad - GPCB",21-04-2026 17:00,23.002657,72.591912,NO2,81,87,85
India,Gujarat,Ahmedabad,"Raikhad, Ahmedabad - IITM",21-04-2026 17:00,23.020509,72.579261,CO,14,110,28
India,Gujarat,Ahmedabad,"Rakhial, Ahmedabad - IITM",21-04-2026 17:00,23.016834,72.625775,SO2,6,121,53
India,Gujarat,Ahmedabad,"Rakhial, Ahmedabad - IITM",21-04-2026 17:00,23.016834,72.625775,CO,1,129,4
India,Gujarat,Ahmedabad,"Rakhial, Ahmedabad - IITM",21-04-2026 17:00,23.016834,72.625775,OZONE,2,58,48
India,Delhi,Delhi,"Major Dhyan Chand National Stadium, Delhi - DPCC",21-04-2026 17:00,28.611281,77.237738,NO2,16,132,70
India,Delhi,Delhi,"Major Dhyan Chand National Stadium, Delhi - DPCC",21-04-2026 17:00,28.611281,77.237738,NH3,14,18,15
India,Delhi,Delhi,"Mandir Marg, Delhi - DPCC",21-04-2026 17:00,28.636429,77.201067,PM2.5,88,321,157
India,Delhi,Delhi,"Mandir Marg, Delhi - DPCC",21-04-2026 17:00,28.636429,77.201067,NO2,31,81,54
India,Delhi,Delhi,"Mundka, Delhi - DPCC",21-04-2026 17:00,28.684678,77.076574,OZONE,22,88,78
India,Delhi,Delhi,"NSIT Dwarka, Delhi - CPCB",21-04-2026 17:00,28.60909,77.0325413,PM2.5,67,167,108
India,Delhi,Delhi,"NSUT Jaffarpur, Delhi - DPCC",21-04-2026 17:00,28.594004,76.909423,SO2,33,76,49
India,Delhi,Delhi,"NSUT Jaffarpur, Delhi - DPCC",21-04-2026 17:00,28.594004,76.909423,CO,39,71,46
India,Gujarat,Vadodara,"Bapunagar, Vadodara - Nexteng Enviro",21-04-2026 17:00,22.320153,73.216285,CO,74,103,81
India,Gujarat,Vapi,"Phase-1 GIDC, Vapi - GPCB",21-04-2026 17:00,20.362421,72.918013,PM10,79,119,92
India,Gujarat,Vapi,"Phase-1 GIDC, Vapi - GPCB",21-04-2026 17:00,20.362421,72.918013,SO2,18,23,21
India,Gujarat,Vatva,"Phase-4 GIDC, Vatva - GPCB",21-04-2026 17:00,22.969611,72.6435,PM2.5,40,254,108
India,Gujarat,Vatva,"Phase-4 GIDC, Vatva - GPCB",21-04-2026 17:00,22.969611,72.6435,NO2,36,76,62
India,Haryana,Ambala,"Patti Mehar, Ambala - HSPCB",21-04-2026 17:00,30.379589,76.778328,NH3,7,8,8
India,Haryana,Ambala,"Patti Mehar, Ambala - HSPCB",21-04-2026 17:00,30.379589,76.778328,CO,21,48,30
India,Gujarat,Ahmedabad,"SAC ISRO Bopal, Ahmedabad - IITM",21-04-2026 17:00,23.041137,72.456691,OZONE,8,79,63
India,Gujarat,Ankleshwar,"GIDC, Ankleshwar - GPCB",21-04-2026 17:00,21.613267,73.010555,NH3,5,6,6
India,Gujarat,Ankleshwar,"GIDC, Ankleshwar - GPCB",21-04-2026 17:00,21.613267,73.010555,SO2,23,31,26
India,Gujarat,Ankleshwar,"GIDC, Ankleshwar - GPCB",21-04-2026 17:00,21.613267,73.010555,OZONE,8,35,33
India,Gujarat,Bhavnagar,"Vidhyanagar, Bhavnagar - Nexteng Enviro",21-04-2026 17:00,21.755417,72.139056,NO2,61,83,71
India,Gujarat,Bhavnagar,"Vidhyanagar, Bhavnagar - Nexteng Enviro",21-04-2026 17:00,21.755417,72.139056,SO2,5,8,7
India,Gujarat,Gandhinagar,"GIFT City, Gandhinagar - IITM",21-04-2026 17:00,23.163798,72.677768,CO,7,57,23
India,Delhi,Delhi,"Narela, Delhi - DPCC",21-04-2026 17:00,28.822836,77.101981,PM2.5,40,337,138
India,Delhi,Delhi,"Nehru Nagar, Delhi - DPCC",21-04-2026 17:00,28.56789,77.250515,NH3,7,12,10
India,Delhi,Delhi,"Okhla Phase-2, Delhi - DPCC",21-04-2026 17:00,28.530785,77.271255,PM2.5,27,260,96
India,Delhi,Delhi,"Okhla Phase-2, Delhi - DPCC",21-04-2026 17:00,28.530785,77.271255,NO2,44,151,102
India,Delhi,Delhi,"Patparganj, Delhi - DPCC",21-04-2026 17:00,28.623763,77.287209,NH3,6,11,8
India,Delhi,Delhi,"Punjabi Bagh, Delhi - DPCC",21-04-2026 17:00,28.674045,77.131023,PM10,108,391,179
India,Delhi,Delhi,"Pusa, Delhi - IMD",21-04-2026 17:00,28.63611,77.173332,PM10,72,283,144
India,Delhi,Delhi,"R K Puram, Delhi - DPCC",21-04-2026 17:00,28.563262,77.186937,NO2,6,120,65
India,Haryana,Bahadurgarh,"Arya Nagar, Bahadurgarh - HSPCB",21-04-2026 17:00,28.6701,76.9254,PM10,118,160,129
India,Haryana,Bahadurgarh,"Arya Nagar, Bahadurgarh - HSPCB",21-04-2026 17:00,28.6701,76.9254,NO2,12,14,13
India,Haryana,Bahadurgarh,"Arya Nagar, Bahadurgarh - HSPCB",21-04-2026 17:00,28.6701,76.9254,OZONE,21,29,25
India,Haryana,Jind,"Police Lines, Jind - HSPCB",21-04-2026 17:00,29.307814,76.337619,NO2,29,44,38
India,Haryana,Kaithal,"Rishi Nagar, Kaithal - HSPCB",21-04-2026 17:00,29.8006,76.4155,PM2.5,65,120,93
India,Haryana,Kaithal,"Rishi Nagar, Kaithal - HSPCB",21-04-2026 17:00,29.8006,76.4155,NH3,2,6,6
India,Haryana,Kaithal,"Rishi Nagar, Kaithal - HSPCB",21-04-2026 17:00,29.8006,76.4155,CO,9,72,24
India,Haryana,Kaithal,"Rishi Nagar, Kaithal - HSPCB",21-04-2026 17:00,29.8006,76.4155,OZONE,8,20,17
India,Haryana,Kurukshetra,"Sector-7, Kurukshetra - HSPCB",21-04-2026 17:00,29.966942,76.875879,NO2,4,4,4
India,Haryana,Kurukshetra,"Sector-7, Kurukshetra - HSPCB",21-04-2026 17:00,29.966942,76.875879,NH3,6,7,6
India,Haryana,Kurukshetra,"Sector-7, Kurukshetra - HSPCB",21-04-2026 17:00,29.966942,76.875879,CO,5,33,21
India,Haryana,Mandikhera,"General Hospital, Mandikhera(Nuh) - HSPCB",21-04-2026 17:00,27.9002,76.9938,PM10,37,81,55
India,Haryana,Mandikhera,"General Hospital, Mandikhera(Nuh) - HSPCB",21-04-2026 17:00,27.9002,76.9938,NO2,20,23,22
India,Haryana,Mandikhera,"General Hospital, Mandikhera(Nuh) - HSPCB",21-04-2026 17:00,27.9002,76.9938,NH3,9,10,10
India,Haryana,Manesar,"Sector-2 IMT, Manesar - HSPCB",21-04-2026 17:00,28.360699,76.93609,NH3,7,17,13
India,Haryana,Faridabad,"Sector 11, Faridabad - HSPCB",21-04-2026 17:00,28.376058,77.315741,OZONE,14,16,15
India,Haryana,Faridabad,"Sector 30, Faridabad - HSPCB",21-04-2026 17:00,28.4417,77.3217,NH3,10,12,11
India,Haryana,Faridabad,"Sector 30, Faridabad - HSPCB",21-04-2026 17:00,28.4417,77.3217,CO,60,66,63
India,Haryana,Gurugram,"NISE Gwal Pahari, Gurugram - IMD",21-04-2026 17:00,28.422681,77.148944,CO,6,72,47
India,Haryana,Gurugram,"NISE Gwal Pahari, Gurugram - IMD",21-04-2026 17:00,28.422681,77.148944,OZONE,15,80,75
India,Haryana,Gurugram,"Sector-51, Gurugram - HSPCB",21-04-2026 17:00,28.4227,77.0667,PM10,115,229,161
India,Haryana,Gurugram,"Sector-51, Gurugram - HSPCB",21-04-2026 17:00,28.4227,77.0667,CO,24,41,30
India,Haryana,Gurugram,"Vikas Sadan, Gurugram - HSPCB",21-04-2026 17:00,28.4501238,77.0263051,PM10,100,158,118
India,Haryana,Gurugram,"Vikas Sadan, Gurugram - HSPCB",21-04-2026 17:00,28.4501238,77.0263051,NO2,9,45,26
India,Haryana,Gurugram,"Vikas Sadan, Gurugram - HSPCB",21-04-2026 17:00,28.4501238,77.0263051,OZONE,5,31,23
India,Haryana,Hisar,"Urban Estate-II, Hisar - HSPCB",21-04-2026 17:00,29.14056,75.744941,NH3,10,13,13
India,Karnataka,Chamarajanagar,"Urban, Chamarajanagar - KSPCB",21-04-2026 17:00,11.55358,76.55521,PM2.5,26,52,38
India,Karnataka,Chamarajanagar,"Urban, Chamarajanagar - KSPCB",21-04-2026 17:00,11.55358,76.55521,NO2,14,29,23
India,Karnataka,Chamarajanagar,"Urban, Chamarajanagar - KSPCB",21-04-2026 17:00,11.55358,76.55521,SO2,3,5,4
India,Karnataka,Chamarajanagar,"Urban, Chamarajanagar - KSPCB",21-04-2026 17:00,11.55358,76.55521,OZONE,13,29,28
India,Karnataka,Chikkaballapur,"Chikkaballapur Rural, Chikkaballapur - KSPCB",21-04-2026 17:00,13.428828,77.731418,NH3,1,1,1
India,Karnataka,Chikkamagaluru,"Kalyana Nagara, Chikkamagaluru - KSPCB",21-04-2026 17:00,13.328028,75.797056,NO2,19,24,21
India,Karnataka,Chikkamagaluru,"Kalyana Nagara, Chikkamagaluru - KSPCB",21-04-2026 17:00,13.328028,75.797056,OZONE,12,45,29
India,Karnataka,Dharwad,"Kalabhavan, Dharwad - KSPCB",21-04-2026 17:00,15.459706,75.008381,PM2.5,47,219,87
India,Karnataka,Dharwad,"Kalabhavan, Dharwad - KSPCB",21-04-2026 17:00,15.459706,75.008381,NO2,28,29,28
India,Karnataka,Hubballi,"Lingaraj Nagar, Hubballi - KSPCB",21-04-2026 17:00,15.3714823,75.1160168,OZONE,26,32,29
India,Jammu_and_Kashmir,Srinagar,"Rajbagh, Srinagar - JKPCC",21-04-2026 17:00,34.066206,74.81982,OZONE,1,6,2
India,Jharkhand,Dhanbad,"Sardar Patel Nagar, Dhanbad - JSPCB",21-04-2026 17:00,23.80569,86.44268,OZONE,33,71,58
India,Jharkhand,Jorapokhar,"Tata Stadium, Jorapokhar - JSPCB",21-04-2026 17:00,23.707909,86.41467,SO2,NA,NA,NA
India,Karnataka,Bagalkot,"Vidayagiri, Bagalkot - KSPCB",21-04-2026 17:00,16.172806,75.659694,PM2.5,18,36,34
India,Karnataka,Bagalkot,"Vidayagiri, Bagalkot - KSPCB",21-04-2026 17:00,16.172806,75.659694,PM10,27,54,52
India,Karnataka,Belgaum,"Ramteerth Nagar, Belgaum - KSPCB",21-04-2026 17:00,15.888653,74.541751,PM2.5,19,76,53
India,Karnataka,Bengaluru,"BTM Layout, Bengaluru - CPCB",21-04-2026 17:00,12.9135218,77.5950804,CO,40,57,48
India,Haryana,Rohtak,"MD University, Rohtak - HSPCB",21-04-2026 17:00,28.52123,76.37138,SO2,10,13,12
India,Haryana,Sirsa,"F-Block, Sirsa - HSPCB",21-04-2026 17:00,29.5364,75.0158,CO,54,68,61
India,Haryana,Sonipat,"Murthal, Sonipat - HSPCB",21-04-2026 17:00,29.0272,77.0621,NH3,21,21,21
India,Haryana,Sonipat,"Murthal, Sonipat - HSPCB",21-04-2026 17:00,29.0272,77.0621,OZONE,15,27,23
India,Haryana,Yamuna Nagar,"Gobind Pura, Yamuna Nagar - HSPCB",21-04-2026 17:00,30.1480566,77.2893471,SO2,6,34,15
India,Himachal Pradesh,Baddi,"HIMUDA Complex Phase-1, Baddi - HPPCB",21-04-2026 17:00,30.943887,76.801991,PM2.5,77,325,185
India,Himachal Pradesh,Baddi,"HIMUDA Complex Phase-1, Baddi - HPPCB",21-04-2026 17:00,30.943887,76.801991,NH3,2,5,3
India,Himachal Pradesh,Baddi,"HIMUDA Complex Phase-1, Baddi - HPPCB",21-04-2026 17:00,30.943887,76.801991,OZONE,16,153,153
India,Haryana,Narnaul,"Shastri Nagar, Narnaul - HSPCB",21-04-2026 17:00,28.060249,76.113115,NO2,23,28,26
India,Haryana,Narnaul,"Shastri Nagar, Narnaul - HSPCB",21-04-2026 17:00,28.060249,76.113115,NH3,4,6,5
India,Haryana,Panchgaon,"Amity University, Panchgaon - IITM",21-04-2026 17:00,28.3153,76.9143,PM2.5,75,348,128
India,Haryana,Panchgaon,"Amity University, Panchgaon - IITM",21-04-2026 17:00,28.3153,76.9143,NO2,1,16,6
India,Haryana,Panchgaon,"Amity University, Panchgaon - IITM",21-04-2026 17:00,28.3153,76.9143,SO2,12,47,25
India,Haryana,Panchkula,"Sector-6, Panchkula - HSPCB ",21-04-2026 17:00,30.7057778,76.85318056,PM2.5,68,145,97
India,Haryana,Rohtak,"MD University, Rohtak - HSPCB",21-04-2026 17:00,28.52123,76.37138,PM10,79,150,119
India,Haryana,Bhiwani,"H.B. Colony, Bhiwani - HSPCB",21-04-2026 17:00,28.806223,76.141105,NO2,3,17,9
India,Haryana,Dharuhera,"Municipal Corporation Office, Dharuhera -  HSPCB",21-04-2026 17:00,28.2068,76.7997,CO,54,102,73
India,Haryana,Faridabad,"New Industrial Town, Faridabad - HSPCB",21-04-2026 17:00,28.39072,77.30059,PM10,86,94,90
India,Haryana,Faridabad,"Sector 11, Faridabad - HSPCB",21-04-2026 17:00,28.376058,77.315741,PM2.5,121,313,218
India,Haryana,Faridabad,"Sector 11, Faridabad - HSPCB",21-04-2026 17:00,28.376058,77.315741,PM10,128,244,172
India,Karnataka,Bengaluru,"BWSSB Kadabesanahalli, Bengaluru - CPCB",21-04-2026 17:00,12.9352049,77.6814488,NH3,1,1,1
India,Karnataka,Bengaluru,"Bapuji Nagar, Bengaluru - KSPCB",21-04-2026 17:00,12.951913,77.539784,PM2.5,23,57,42
India,Karnataka,Bengaluru,"Hebbal, Bengaluru - KSPCB",21-04-2026 17:00,13.029152,77.585901,PM10,68,115,90
India,Karnataka,Bengaluru,"Hebbal, Bengaluru - KSPCB",21-04-2026 17:00,13.029152,77.585901,CO,2,24,15
India,Karnataka,Bengaluru,"Hombegowda Nagar, Bengaluru - KSPCB",21-04-2026 17:00,12.938539,77.5901,PM10,52,117,86
India,Karnataka,Bengaluru,"Hombegowda Nagar, Bengaluru - KSPCB",21-04-2026 17:00,12.938539,77.5901,NH3,2,3,3
India,Karnataka,Bengaluru,"Jigani, Bengaluru - KSPCB",21-04-2026 17:00,12.7816279,77.6299145,NO2,17,19,18
India,Karnataka,Bengaluru,"Jigani, Bengaluru - KSPCB",21-04-2026 17:00,12.7816279,77.6299145,SO2,18,19,18
India,Karnataka,Bengaluru,"Kasturi Nagar, Bengaluru - KSPCB",21-04-2026 17:00,13.003872,77.664217,PM2.5,NA,NA,NA
India,Karnataka,Bengaluru,"Kasturi Nagar, Bengaluru - KSPCB",21-04-2026 17:00,13.003872,77.664217,SO2,NA,NA,NA
India,Karnataka,Bengaluru,"Kasturi Nagar, Bengaluru - KSPCB",21-04-2026 17:00,13.003872,77.664217,OZONE,NA,NA,NA
India,Karnataka,Bengaluru,"Sanegurava Halli, Bengaluru - KSPCB",21-04-2026 17:00,12.990328,77.5431385,NO2,NA,NA,NA
India,Karnataka,Bengaluru,"Silk Board, Bengaluru - KSPCB",21-04-2026 17:00,12.917348,77.622813,NO2,5,20,10
India,Karnataka,Kalaburagi,"Mahatma Basaveswar Colony, Kalaburgi - KSPCB",21-04-2026 17:00,17.336318,76.847397,SO2,2,6,4
India,Karnataka,Madikeri,"Stuart Hill, Madikeri - KSPCB",21-04-2026 17:00,12.415911,75.73505,PM2.5,12,35,25
India,Karnataka,Madikeri,"Stuart Hill, Madikeri - KSPCB",21-04-2026 17:00,12.415911,75.73505,SO2,7,7,7
India,Karnataka,Madikeri,"Stuart Hill, Madikeri - KSPCB",21-04-2026 17:00,12.415911,75.73505,CO,8,23,15
India,Karnataka,Mangalore,"Kadri, Mangalore - KSPCB",21-04-2026 17:00,12.88925,74.853,PM2.5,33,51,45
India,Karnataka,Mysuru,"Hebbal 1st Stage, Mysuru - KSPCB",21-04-2026 17:00,12.21041,76.37376,PM10,43,90,68
India,Karnataka,Mysuru,"Hebbal 1st Stage, Mysuru - KSPCB",21-04-2026 17:00,12.21041,76.37376,SO2,2,5,3
India,Karnataka,Ramanagara,"Vijay Nagar, Ramanagara - KSPCB",21-04-2026 17:00,12.733409,77.298051,PM2.5,38,112,62
India,Karnataka,Ramanagara,"Vijay Nagar, Ramanagara - KSPCB",21-04-2026 17:00,12.733409,77.298051,SO2,18,25,22
India,Karnataka,Shivamogga,"Vinoba Nagara, Shivamogga - KSPCB",21-04-2026 17:00,13.94,75.555917,NO2,17,26,21
India,Karnataka,Shivamogga,"Vinoba Nagara, Shivamogga - KSPCB",21-04-2026 17:00,13.94,75.555917,SO2,1,4,3
India,Maharashtra,Aurangabad,"More Chowk Waluj, Aurangabad - MPCB",21-04-2026 17:00,19.8389439,75.244448,NH3,15,17,16
India,Maharashtra,Aurangabad,"Rachnakar Colony, Aurangabad - MPCB",21-04-2026 17:00,19.863756,75.321188,PM10,53,123,85
India,Maharashtra,Aurangabad,"Rachnakar Colony, Aurangabad - MPCB",21-04-2026 17:00,19.863756,75.321188,OZONE,10,94,77
India,Maharashtra,Badlapur,"Katrap, Badlapur - MPCB",21-04-2026 17:00,19.16485,73.23409,SO2,6,14,8
India,Maharashtra,Belapur,"CBD Belapur, Belapur - MPCB",21-04-2026 17:00,19.0243902,73.0406721,PM2.5,NA,NA,NA
India,Maharashtra,Belapur,"CBD Belapur, Belapur - MPCB",21-04-2026 17:00,19.0243902,73.0406721,NO2,NA,NA,NA
India,Maharashtra,Belapur,"CBD Belapur, Belapur - MPCB",21-04-2026 17:00,19.0243902,73.0406721,OZONE,6,126,84
India,Maharashtra,Bhiwandi,"Gokul Nagar, Bhiwandi - MPCB",21-04-2026 17:00,19.309073,73.057223,OZONE,11,93,65
India,Maharashtra,Boisar,"Khaira, Boisar - MPCB",21-04-2026 17:00,19.786089,72.757971,NO2,18,19,19
India,Maharashtra,Boisar,"Khaira, Boisar - MPCB",21-04-2026 17:00,19.786089,72.757971,NH3,2,3,3
India,Maharashtra,Boisar,"Khaira, Boisar - MPCB",21-04-2026 17:00,19.786089,72.757971,CO,32,32,32
India,Madhya Pradesh,Ratlam,"Shasthri Nagar, Ratlam - IPCA Lab",21-04-2026 17:00,23.331731,75.045981,PM2.5,24,116,46
India,Madhya Pradesh,Sagar,"Civil Lines, Sagar - MPPCB",21-04-2026 17:00,23.838586,78.759431,SO2,3,19,10
India,Madhya Pradesh,Satna,"Bandhavgar Colony, Satna - Birla Cement",21-04-2026 17:00,24.58434363,80.8549414,SO2,21,28,23
India,Madhya Pradesh,Singrauli,"Suryakiran Bhawan NCL, Singrauli - MPPCB",21-04-2026 17:00,24.10897,82.64558,PM2.5,41,136,72
India,Madhya Pradesh,Singrauli,"Suryakiran Bhawan NCL, Singrauli - MPPCB",21-04-2026 17:00,24.10897,82.64558,NO2,15,33,23
India,Madhya Pradesh,Singrauli,"Suryakiran Bhawan NCL, Singrauli - MPPCB",21-04-2026 17:00,24.10897,82.64558,SO2,18,60,36
India,Madhya Pradesh,Singrauli,"Suryakiran Bhawan NCL, Singrauli - MPPCB",21-04-2026 17:00,24.10897,82.64558,CO,24,72,53
India,Madhya Pradesh,Singrauli,"Suryakiran Bhawan NCL, Singrauli - MPPCB",21-04-2026 17:00,24.10897,82.64558,OZONE,3,20,4
India,Madhya Pradesh,Ujjain,"Mahashweta Nagar, Ujjain - MPPCB",21-04-2026 17:00,23.1633321,75.800225,PM10,43,112,78
India,Madhya Pradesh,Ujjain,"Mahashweta Nagar, Ujjain - MPPCB",21-04-2026 17:00,23.1633321,75.800225,CO,14,38,18
India,Maharashtra,Ahmednagar,"Tarakpur, Ahmednagar - MPCB",21-04-2026 17:00,19.10122,74.73339,PM10,57,156,96
India,Maharashtra,Akola,"Ramdaspeth, Akola - MPCB",21-04-2026 17:00,20.719516,77.000253,PM2.5,26,331,80
India,Maharashtra,Ambernath,"Chinchpada, Ambernath - MPCB",21-04-2026 17:00,19.215784,73.199781,CO,6,27,12
India,Maharashtra,Amravati,"Shivneri Colony, Amravati - MPCB",21-04-2026 17:00,20.9402359,77.7895248,NH3,2,4,3
India,Maharashtra,Amravati,"Shivneri Colony, Amravati - MPCB",21-04-2026 17:00,20.9402359,77.7895248,SO2,8,26,12
India,Maharashtra,Amravati,"Shri Shivaji Science College, Amravati - MPCB",21-04-2026 17:00,20.939198,77.765701,NO2,5,83,20
India,Karnataka,Vijayapura,"Ibrahimpur, Vijayapura - KSPCB",21-04-2026 17:00,16.802639,75.722694,OZONE,16,17,16
India,Karnataka,Yadgir,"Collector Office, Yadgir - KSPCB",21-04-2026 17:00,16.7602,77.1428,PM10,62,102,86
India,Kerala,Kannur,"Thavakkara, Kannur - Kerala PCB",21-04-2026 17:00,11.875,75.3732,PM2.5,78,89,83
India,Kerala,Kollam,"Polayathode, Kollam - Kerala PCB",21-04-2026 17:00,8.8787,76.6073,NO2,NA,NA,NA
India,Kerala,Kollam,"Polayathode, Kollam - Kerala PCB",21-04-2026 17:00,8.8787,76.6073,NH3,NA,NA,NA
India,Kerala,Thiruvananthapuram,"Kariavattom, Thiruvananthapuram - Kerala PCB",21-04-2026 17:00,8.5637,76.8865,PM2.5,NA,NA,NA
India,Madhya Pradesh,Dewas,"Bhopal Chauraha, Dewas - MPPCB",21-04-2026 17:00,22.9682591,76.064118,SO2,17,39,23
India,Madhya Pradesh,Dewas,"Bhopal Chauraha, Dewas - MPPCB",21-04-2026 17:00,22.9682591,76.064118,CO,26,46,29
India,Madhya Pradesh,Gwalior,"Deen Dayal Nagar, Gwalior - MPPCB",21-04-2026 17:00,26.259242,78.216432,PM10,56,244,113
India,Madhya Pradesh,Gwalior,"Maharaj Bada, Gwalior - MPPCB",21-04-2026 17:00,26.200388,78.147714,CO,4,80,36
India,Madhya Pradesh,Indore,"Chhoti Gwaltoli, Indore - MPPCB",21-04-2026 17:00,22.431,75.5213,NH3,10,27,17
India,Madhya Pradesh,Indore,"Chhoti Gwaltoli, Indore - MPPCB",21-04-2026 17:00,22.431,75.5213,SO2,7,12,9
India,Madhya Pradesh,Bhopal,"Paryavaran Parisar, Bhopal - MPPCB",21-04-2026 17:00,23.210494,77.425409,NO2,14,75,27
India,Madhya Pradesh,Bhopal,"Paryavaran Parisar, Bhopal - MPPCB",21-04-2026 17:00,23.210494,77.425409,NH3,6,7,7
India,Madhya Pradesh,Bhopal,"Paryavaran Parisar, Bhopal - MPPCB",21-04-2026 17:00,23.210494,77.425409,SO2,22,31,27
India,Madhya Pradesh,Bhopal,"T T Nagar, Bhopal - MPPCB",21-04-2026 17:00,23.233584,77.400574,OZONE,53,148,136
India,Madhya Pradesh,Dewas,"Bhopal Chauraha, Dewas - MPPCB",21-04-2026 17:00,22.9682591,76.064118,NO2,72,110,96
India,Madhya Pradesh,Jabalpur,"Marhatal, Jabalpur - MPPCB",21-04-2026 17:00,23.168606,79.932247,OZONE,70,96,88
India,Madhya Pradesh,Jabalpur,"Suhagi, Jabalpur - JMC",21-04-2026 17:00,23.218135,79.95777,NH3,3,3,3
India,Madhya Pradesh,Mandideep,"Sector-D Industrial Area, Mandideep - MPPCB",21-04-2026 17:00,23.10844,77.511428,PM10,61,122,84
India,Madhya Pradesh,Mandideep,"Sector-D Industrial Area, Mandideep - MPPCB",21-04-2026 17:00,23.10844,77.511428,NH3,4,9,7
India,Madhya Pradesh,Indore,"Regional Park, Indore - IMC",21-04-2026 17:00,22.678,75.8559,NO2,15,23,19
India,Madhya Pradesh,Indore,"Regional Park, Indore - IMC",21-04-2026 17:00,22.678,75.8559,SO2,20,24,22
India,Maharashtra,Mahad,"Kamble Tarf Birwadi, Mahad - MPCB",21-04-2026 17:00,18.1023399,73.4783687,SO2,15,115,43
India,Maharashtra,Mahad,"Kamble Tarf Birwadi, Mahad - MPCB",21-04-2026 17:00,18.1023399,73.4783687,OZONE,12,74,54
India,Maharashtra,Malegaon,"Mahesh Nagar, Malegaon - MPCB",21-04-2026 17:00,20.555712,74.529236,PM2.5,39,141,81
India,Maharashtra,Mira-Bhayandar,"Bhayandar West, Mira-Bhayandar - MPCB",21-04-2026 17:00,19.296481,72.840923,PM10,48,107,76
India,Maharashtra,Mira-Bhayandar,"Bhayandar West, Mira-Bhayandar - MPCB",21-04-2026 17:00,19.296481,72.840923,NH3,4,6,5
India,Maharashtra,Mira-Bhayandar,"Bhayandar West, Mira-Bhayandar - MPCB",21-04-2026 17:00,19.296481,72.840923,OZONE,1,30,22
India,Maharashtra,Mumbai,"Bandra Kurla Complex, Mumbai - MPCB",21-04-2026 17:00,19.065931,72.862131,PM2.5,47,140,76
India,Maharashtra,Mumbai,"Borivali East, Mumbai - IITM",21-04-2026 17:00,19.23241,72.86895,NH3,4,5,5
India,Maharashtra,Mumbai,"Borivali East, Mumbai - IITM",21-04-2026 17:00,19.23241,72.86895,OZONE,17,72,70
India,Maharashtra,Nashik,"Hirawadi, Nashik - MPCB",21-04-2026 17:00,20.021503,73.813844,NO2,1,24,9
India,Maharashtra,Nashik,"Hirawadi, Nashik - MPCB",21-04-2026 17:00,20.021503,73.813844,NH3,2,9,3
India,Maharashtra,Nashik,"MIDC Ambad, Nashik - MPCB",21-04-2026 17:00,19.95022,73.73148,PM10,52,109,80
India,Maharashtra,Nashik,"MIDC Ambad, Nashik - MPCB",21-04-2026 17:00,19.95022,73.73148,OZONE,30,81,56
India,Maharashtra,Nashik,"Pandav Nagari, Nashik - MPCB",21-04-2026 17:00,19.9591346,73.7788008,NH3,2,3,2
India,Maharashtra,Navi Mumbai,"Kopripada-Vashi, Navi Mumbai - MPCB",21-04-2026 17:00,19.090337,73.014232,PM10,66,141,101
India,Maharashtra,Navi Mumbai,"Kopripada-Vashi, Navi Mumbai - MPCB",21-04-2026 17:00,19.090337,73.014232,NO2,10,40,18
India,Maharashtra,Navi Mumbai,"Kopripada-Vashi, Navi Mumbai - MPCB",21-04-2026 17:00,19.090337,73.014232,NH3,7,7,7
India,Maharashtra,Navi Mumbai,"Kopripada-Vashi, Navi Mumbai - MPCB",21-04-2026 17:00,19.090337,73.014232,SO2,2,6,3
India,Maharashtra,Navi Mumbai,"Nerul, Navi Mumbai - MPCB",21-04-2026 17:00,19.008751,73.01662,PM2.5,17,92,58
India,Maharashtra,Mumbai,"Borivali East, Mumbai - MPCB",21-04-2026 17:00,19.2243333,72.8658113,NH3,1,20,7
India,Maharashtra,Mumbai,"Chakala-Andheri East, Mumbai - IITM",21-04-2026 17:00,19.11074,72.86084,OZONE,12,74,58
India,Maharashtra,Mumbai,"Chembur, Mumbai - MPCB",21-04-2026 17:00,19.0364585,72.8954371,PM2.5,33,68,46
India,Maharashtra,Mumbai,"Chembur, Mumbai - MPCB",21-04-2026 17:00,19.0364585,72.8954371,NO2,13,44,24
India,Maharashtra,Mumbai,"Chembur, Mumbai - MPCB",21-04-2026 17:00,19.0364585,72.8954371,NH3,5,7,6
India,Maharashtra,Mumbai,"Colaba, Mumbai - MPCB",21-04-2026 17:00,18.91,72.82,PM10,14,59,33
India,Maharashtra,Mumbai,"Colaba, Mumbai - MPCB",21-04-2026 17:00,18.91,72.82,CO,72,83,80
India,Maharashtra,Mumbai,"Deonar, Mumbai - IITM",21-04-2026 17:00,19.04946,72.923,PM10,114,184,150
India,Maharashtra,Mumbai,"Deonar, Mumbai - IITM",21-04-2026 17:00,19.04946,72.923,NH3,NA,NA,NA
India,Maharashtra,Chandrapur,"Chauhan Colony, Chandrapur - MPCB",21-04-2026 17:00,19.9629,79.298714,NH3,NA,NA,NA
India,Maharashtra,Chandrapur,"Chauhan Colony, Chandrapur - MPCB",21-04-2026 17:00,19.9629,79.298714,OZONE,14,22,19
India,Maharashtra,Chandrapur,"MIDC Khutala, Chandrapur - MPCB",21-04-2026 17:00,19.9775302,79.2337086,PM2.5,NA,NA,NA
India,Maharashtra,Chandrapur,"MIDC Khutala, Chandrapur - MPCB",21-04-2026 17:00,19.9775302,79.2337086,PM10,69,164,121
India,Maharashtra,Chandrapur,"MIDC Khutala, Chandrapur - MPCB",21-04-2026 17:00,19.9775302,79.2337086,SO2,NA,NA,NA
India,Maharashtra,Dhule,"Deopur, Dhule - MPCB",21-04-2026 17:00,20.918946,74.776388,OZONE,24,70,28
India,Maharashtra,Hingoli,"Ashta Vinayak Nagar, Hingoli - MPCB",21-04-2026 17:00,19.710842,77.151824,SO2,2,6,3
India,Maharashtra,Jalgaon,"Prabhat Colony, Jalgaon - MPCB",21-04-2026 17:00,21.001264,75.565602,PM2.5,28,125,65
India,Maharashtra,Nagpur,"Mahal, Nagpur - MPCB",21-04-2026 17:00,21.14472,79.107595,PM10,63,154,104
India,Maharashtra,Nagpur,"Mahal, Nagpur - MPCB",21-04-2026 17:00,21.14472,79.107595,SO2,1,113,58
India,Maharashtra,Nagpur,"Ram Nagar, Nagpur - MPCB",21-04-2026 17:00,21.143383,79.048912,OZONE,7,58,55
India,Maharashtra,Nanded,"Sneh Nagar, Nanded - MPCB",21-04-2026 17:00,19.173852,77.296291,PM10,47,249,121
India,Maharashtra,Nanded,"Sneh Nagar, Nanded - MPCB",21-04-2026 17:00,19.173852,77.296291,OZONE,20,83,75
India,Maharashtra,Nashik,"Gangapur Road, Nashik - MPCB",21-04-2026 17:00,20.0073285,73.7762427,PM10,58,112,85
India,Maharashtra,Nashik,"Gangapur Road, Nashik - MPCB",21-04-2026 17:00,20.0073285,73.7762427,CO,26,27,26
India,Maharashtra,Nashik,"Hirawadi, Nashik - MPCB",21-04-2026 17:00,20.021503,73.813844,PM2.5,42,71,55
India,Maharashtra,Jalgaon,"Prabhat Colony, Jalgaon - MPCB",21-04-2026 17:00,21.001264,75.565602,NH3,1,2,2
India,Maharashtra,Kalyan,"Khadakpada, Kalyan - MPCB",21-04-2026 17:00,19.25292,73.142019,NH3,1,1,1
India,Maharashtra,Kolhapur,"Shivaji University, Kolhapur - MPCB",21-04-2026 17:00,16.6870449,74.2505872,NO2,1,26,7
India,Maharashtra,Kolhapur,"Shivaji University, Kolhapur - MPCB",21-04-2026 17:00,16.6870449,74.2505872,SO2,1,10,6
India,Maharashtra,Latur,"Sawe Wadi, Latur - MPCB",21-04-2026 17:00,18.39963,76.57452,PM2.5,41,164,64
India,Maharashtra,Mahad,"Kamble Tarf Birwadi, Mahad - MPCB",21-04-2026 17:00,18.1023399,73.4783687,PM10,56,180,103
India,Maharashtra,Mahad,"Kamble Tarf Birwadi, Mahad - MPCB",21-04-2026 17:00,18.1023399,73.4783687,NO2,7,36,15
India,Maharashtra,Mumbai,"Malad West, Mumbai - IITM",21-04-2026 17:00,19.19709,72.82204,PM10,53,120,83
India,Maharashtra,Mumbai,"Mazgaon, Mumbai - IITM",21-04-2026 17:00,18.96702,72.84214,PM2.5,26,80,49
India,Maharashtra,Mumbai,"Mazgaon, Mumbai - IITM",21-04-2026 17:00,18.96702,72.84214,OZONE,20,78,61
India,Maharashtra,Mumbai,"Mindspace-Malad West, Mumbai - MPCB",21-04-2026 17:00,19.1878657,72.8304069,NH3,1,4,2
India,Maharashtra,Mumbai,"Powai, Mumbai - MPCB",21-04-2026 17:00,19.1375,72.915056,PM10,39,103,66
India,Maharashtra,Mumbai,"Powai, Mumbai - MPCB",21-04-2026 17:00,19.1375,72.915056,OZONE,9,9,9
India,Maharashtra,Mumbai,"Sewri, Mumbai - BMC",21-04-2026 17:00,19.000084,72.85673,PM10,37,81,56
India,Maharashtra,Mumbai,"Sewri, Mumbai - BMC",21-04-2026 17:00,19.000084,72.85673,NH3,6,14,9
India,Maharashtra,Mumbai,"Shivaji Nagar, Mumbai - BMC",21-04-2026 17:00,19.060498,72.923356,PM10,60,122,93
India,Maharashtra,Mumbai,"Siddharth Nagar-Worli, Mumbai - IITM",21-04-2026 17:00,19.000083,72.813993,PM10,NA,NA,NA
India,Maharashtra,Mumbai,"Vile Parle West, Mumbai - MPCB",21-04-2026 17:00,19.10861,72.83622,PM10,40,99,63
India,Maharashtra,Mumbai,"Worli, Mumbai -MPCB",21-04-2026 17:00,18.994218,72.8158167,PM2.5,17,110,59
India,Maharashtra,Mumbai,"Worli, Mumbai -MPCB",21-04-2026 17:00,18.994218,72.8158167,NO2,12,12,12
India,Maharashtra,Mumbai,"Ghatkopar, Mumbai - BMC",21-04-2026 17:00,19.083694,72.920967,PM10,81,130,98
India,Maharashtra,Mumbai,"Kherwadi_Bandra East, Mumbai - MPCB",21-04-2026 17:00,19.0632143,72.8456324,PM2.5,25,82,51
India,Maharashtra,Mumbai,"Khindipada-Bhandup West, Mumbai - IITM",21-04-2026 17:00,19.1653323,72.922099,SO2,7,15,10
India,Maharashtra,Mumbai,"Kurla, Mumbai - MPCB",21-04-2026 17:00,19.0863,72.8888,PM2.5,NA,NA,NA
India,Maharashtra,Mumbai,"Kurla, Mumbai - MPCB",21-04-2026 17:00,19.0863,72.8888,OZONE,28,29,29
India,Odisha,Suakati,"OMC Colony, Suakati - OSPCB",21-04-2026 17:00,21.606865,85.510538,NH3,4,4,4
India,Odisha,Suakati,"OMC Colony, Suakati - OSPCB",21-04-2026 17:00,21.606865,85.510538,OZONE,16,160,122
India,Odisha,Talcher,"Talcher Coalfields,Talcher - OSPCB",21-04-2026 17:00,20.9360711,85.1707021,PM10,27,132,81
India,Odisha,Talcher,"Talcher Coalfields,Talcher - OSPCB",21-04-2026 17:00,20.9360711,85.1707021,SO2,3,30,9
India,Odisha,Talcher,"Talcher Coalfields,Talcher - OSPCB",21-04-2026 17:00,20.9360711,85.1707021,OZONE,24,39,34
India,Odisha,Tensa,"Barsua Iron Ore Mines, Tensa - OSPCB",21-04-2026 17:00,21.869985,85.167016,OZONE,13,82,75
India,Puducherry,Puducherry,"Jawahar Nagar, Puducherry - PPCC",21-04-2026 17:00,11.9309,79.8027,NO2,1,91,11
India,Puducherry,Puducherry,"Jawahar Nagar, Puducherry - PPCC",21-04-2026 17:00,11.9309,79.8027,NH3,1,5,3
India,Puducherry,Puducherry,"Jawahar Nagar, Puducherry - PPCC",21-04-2026 17:00,11.9309,79.8027,SO2,3,10,7
India,Punjab,Amritsar,"Golden Temple, Amritsar - PPCB",21-04-2026 17:00,31.62,74.876512,NO2,13,386,128
India,Odisha,Bhubaneswar,"Lingraj Mandir, Bhubaneswar - OSPCB",21-04-2026 17:00,20.24079,85.836784,PM10,21,91,50
India,Odisha,Bhubaneswar,"Patia, Bhubaneswar - OSPCB",21-04-2026 17:00,20.34652,85.8163,NH3,4,8,6
India,Odisha,Bhubaneswar,"Patia, Bhubaneswar - OSPCB",21-04-2026 17:00,20.34652,85.8163,CO,62,86,83
India,Odisha,Bileipada,"Tata Township, Bileipada - OSPCB",21-04-2026 17:00,22.06156703,85.47409613,PM10,NA,NA,NA
India,Odisha,Brajrajnagar,"GM Office, Brajrajnagar - OSPCB",21-04-2026 17:00,21.8004996,83.8396977,SO2,19,21,20
India,Odisha,Byasanagar,"Ferro Chrome Colony, Byasanagar - OSPCB",21-04-2026 17:00,20.94185,86.1151,NO2,4,17,9
India,Odisha,Cuttack,"CDA Area, Cuttack - OSPCB",21-04-2026 17:00,20.48891,85.84768,PM2.5,7,92,33
India,Odisha,Cuttack,"CDA Area, Cuttack - OSPCB",21-04-2026 17:00,20.48891,85.84768,NO2,5,11,8
India,Odisha,Cuttack,"CDA Area, Cuttack - OSPCB",21-04-2026 17:00,20.48891,85.84768,NH3,2,2,2
India,Maharashtra,Navi Mumbai,"Sanpada, Navi Mumbai - MPCB",21-04-2026 17:00,19.0575752,73.0151367,PM10,NA,NA,NA
India,Maharashtra,Navi Mumbai,"Sector-2E Kalamboli, Navi Mumbai - MPCB",21-04-2026 17:00,19.02579,73.10297,OZONE,1,71,41
India,Maharashtra,Navi Mumbai,"Tondare-Taloja, Navi Mumbai - MPCB",21-04-2026 17:00,19.063,73.1209,PM2.5,44,146,67
India,Maharashtra,Navi Mumbai,"Tondare-Taloja, Navi Mumbai - MPCB",21-04-2026 17:00,19.063,73.1209,OZONE,4,28,17
India,Maharashtra,Parbhani,"Masoom Colony, Parbhani - MPCB",21-04-2026 17:00,19.265594,76.761463,NO2,13,23,20
India,Maharashtra,Parbhani,"Masoom Colony, Parbhani - MPCB",21-04-2026 17:00,19.265594,76.761463,SO2,9,29,18
India,Maharashtra,Pimpri-Chinchwad,"Bhosari,Pimpri-Chinchwad - IITM",21-04-2026 17:00,18.640051,73.848956,PM10,42,108,78
India,Maharashtra,Pimpri-Chinchwad,"Bhumkar Nagar, Pimpri-Chinchwad - IITM",21-04-2026 17:00,18.60577,73.749976,NO2,9,31,16
India,Maharashtra,Sangli,"Vijay Nagar, Sangli - MPCB",21-04-2026 17:00,16.5038,74.3623,OZONE,11,70,47
India,Maharashtra,Satara,"Koyana Nagar, Satara - MPCB",21-04-2026 17:00,17.696651,74.003387,SO2,1,4,2
India,Maharashtra,Satara,"Koyana Nagar, Satara - MPCB",21-04-2026 17:00,17.696651,74.003387,OZONE,20,210,187
India,Maharashtra,Solapur,"Dnyaneshwar Nagar, Solapur - MPCB",21-04-2026 17:00,17.6336264,75.9132495,OZONE,4,69,56
India,Maharashtra,Solapur,"Ratandeep Housing Society, Solapur - MPCB",21-04-2026 17:00,17.65439,75.90649,PM2.5,61,152,86
India,Maharashtra,Solapur,"Ratandeep Housing Society, Solapur - MPCB",21-04-2026 17:00,17.65439,75.90649,NO2,24,151,68
India,Maharashtra,Solapur,"Ratandeep Housing Society, Solapur - MPCB",21-04-2026 17:00,17.65439,75.90649,NH3,4,28,9
India,Maharashtra,Thane,"Kasarvadavali, Thane - MPCB",21-04-2026 17:00,19.26777,72.97182,PM10,NA,NA,NA
India,Maharashtra,Thane,"Kasarvadavali, Thane - MPCB",21-04-2026 17:00,19.26777,72.97182,NO2,NA,NA,NA
India,Odisha,Cuttack,"CDA Area, Cuttack - OSPCB",21-04-2026 17:00,20.48891,85.84768,SO2,5,12,8
India,Odisha,Nayagarh,"Dabuna, Nayagarh - OSPCB",21-04-2026 17:00,21.847279,85.416905,NO2,2,5,4
India,Odisha,Rairangpur,"Divisional Forest Office, Rairangpur - OSPCB",21-04-2026 17:00,22.265816,86.174829,PM10,37,104,62
India,Odisha,Rairangpur,"Divisional Forest Office, Rairangpur - OSPCB",21-04-2026 17:00,22.265816,86.174829,OZONE,11,50,39
India,Odisha,Rourkela,"Raghunathpali, Rourkela - OSPCB",21-04-2026 17:00,22.220833,84.809444,CO,30,68,48
India,Maharashtra,Thane,"Upvan Fort, Thane - MPCB",21-04-2026 17:00,19.222279,72.957979,SO2,1,12,8
India,Maharashtra,Ulhasnagar,"Sidhi Vinayak Nagar, Ulhasnagar - MPCB",21-04-2026 17:00,19.235581,73.159121,NO2,8,25,16
India,Maharashtra,Virar,"Bolinj, Virar - MPCB",21-04-2026 17:00,19.445821,72.7988231,PM2.5,1,100,44
India,Meghalaya,Shillong,"JN Stadium, Shillong - Meghalaya PCB",21-04-2026 17:00,25.5803419,91.8942571,NO2,11,56,33
India,Meghalaya,Shillong,"JN Stadium, Shillong - Meghalaya PCB",21-04-2026 17:00,25.5803419,91.8942571,CO,8,18,14
India,Maharashtra,Pimpri-Chinchwad,"Savta Mali Nagar, Pimpri-Chinchwad - IITM",21-04-2026 17:00,18.614767,73.799516,PM2.5,35,91,56
India,Maharashtra,Pimpri-Chinchwad,"Savta Mali Nagar, Pimpri-Chinchwad - IITM",21-04-2026 17:00,18.614767,73.799516,NO2,27,85,45
India,Maharashtra,Pimpri-Chinchwad,"Thergaon, Pimpri Chinchwad - MPCB",21-04-2026 17:00,18.616318,73.765797,NH3,11,14,12
India,Maharashtra,Pune,"Dhankawadi, Pune - IITM",21-04-2026 17:00,18.459883,73.852193,PM2.5,41,145,65
India,Maharashtra,Pune,"Dhankawadi, Pune - IITM",21-04-2026 17:00,18.459883,73.852193,PM10,54,133,92
India,Odisha,Angul,"Hakimapada, Angul - OSPCB",21-04-2026 17:00,20.832874,85.104082,NO2,7,26,15
India,Odisha,Balasore,"Kalidaspur, Balasore - OSPCB",21-04-2026 17:00,21.51161,86.89088,CO,31,56,50
India,Odisha,Barbil,"Forest Office, Barbil - OSPCB",21-04-2026 17:00,22.1166054,85.3945546,NH3,1,5,2
India,Odisha,Barbil,"Forest Office, Barbil - OSPCB",21-04-2026 17:00,22.1166054,85.3945546,OZONE,46,184,169
India,Maharashtra,Pune,"Revenue Colony-Shivajinagar, Pune - IITM",21-04-2026 17:00,18.530085,73.849598,PM2.5,NA,NA,NA
India,Maharashtra,Pune,"Revenue Colony-Shivajinagar, Pune - IITM",21-04-2026 17:00,18.530085,73.849598,PM10,NA,NA,NA
India,Maharashtra,Pune,"Revenue Colony-Shivajinagar, Pune - IITM",21-04-2026 17:00,18.530085,73.849598,CO,18,64,43
India,Maharashtra,Sangli,"Vijay Nagar, Sangli - MPCB",21-04-2026 17:00,16.5038,74.3623,PM2.5,34,80,47
India,Rajasthan,Kota,"Dhanmandi, Kota - RSPCB",21-04-2026 17:00,25.16409,75.858137,NO2,25,130,52
India,Rajasthan,Kota,"Dhanmandi, Kota - RSPCB",21-04-2026 17:00,25.16409,75.858137,NH3,8,22,11
India,Rajasthan,Kota,"Dhanmandi, Kota - RSPCB",21-04-2026 17:00,25.16409,75.858137,OZONE,2,98,85
India,Rajasthan,Kota,"Nayapura, Kota - RSPCB",21-04-2026 17:00,25.196024,75.855668,PM10,51,175,97
India,Rajasthan,Kota,"Nayapura, Kota - RSPCB",21-04-2026 17:00,25.196024,75.855668,CO,2,68,20
India,Rajasthan,Kota,"Shrinath Puram, Kota - RSPCB",21-04-2026 17:00,25.14389,75.821256,PM10,40,76,65
India,Rajasthan,Kota,"Shrinath Puram, Kota - RSPCB",21-04-2026 17:00,25.14389,75.821256,NH3,5,21,9
India,Rajasthan,Nagaur,"Karni Colony, Nagaur - RSPCB",21-04-2026 17:00,27.213494,73.734444,PM2.5,13,103,42
India,Rajasthan,Nagaur,"Karni Colony, Nagaur - RSPCB",21-04-2026 17:00,27.213494,73.734444,OZONE,32,126,83
India,Rajasthan,Pali,"Indira Colony Vistar, Pali - RSPCB",21-04-2026 17:00,25.771061,73.340227,PM2.5,43,150,83
India,Rajasthan,Pali,"Indira Colony Vistar, Pali - RSPCB",21-04-2026 17:00,25.771061,73.340227,PM10,76,146,113
India,Rajasthan,Hanumangarh,"Housing Board, Hanumangarh - RSPCB",21-04-2026 17:00,29.61075,74.283608,NH3,4,8,6
India,Rajasthan,Hanumangarh,"Housing Board, Hanumangarh - RSPCB",21-04-2026 17:00,29.61075,74.283608,CO,12,83,15
India,Rajasthan,Jaipur,"Adarsh Nagar, Jaipur - RSPCB",21-04-2026 17:00,26.902909,75.836858,PM2.5,52,201,118
India,Rajasthan,Jaipur,"Adarsh Nagar, Jaipur - RSPCB",21-04-2026 17:00,26.902909,75.836858,CO,4,70,19
India,Rajasthan,Jaipur,"Mansarovar Sector-12, Jaipur - RSPCB",21-04-2026 17:00,26.843698,75.766894,PM10,95,225,147
India,Rajasthan,Jaipur,"Police Commissionerate, Jaipur - RSPCB",21-04-2026 17:00,26.9164092,75.7994901,OZONE,17,90,77
India,Rajasthan,Jaipur,"RIICO Sitapura, Jaipur - RSPCB",21-04-2026 17:00,26.786682,75.827928,PM2.5,22,317,110
India,Rajasthan,Jaipur,"RIICO Sitapura, Jaipur - RSPCB",21-04-2026 17:00,26.786682,75.827928,PM10,70,388,162
India,Rajasthan,Alwar,"Moti Doongri, Alwar - RSPCB",21-04-2026 17:00,27.554793,76.611536,SO2,1,36,20
India,Rajasthan,Alwar,"Moti Doongri, Alwar - RSPCB",21-04-2026 17:00,27.554793,76.611536,CO,12,44,28
India,Rajasthan,Banswara,"Rati Talai, Banswara - RSPCB",21-04-2026 17:00,23.55519,74.44001,PM10,48,278,94
India,Rajasthan,Baran,"Bamboliya, Baran - RSPCB",21-04-2026 17:00,25.106006,76.469948,OZONE,3,113,96
India,Rajasthan,Barmer,"Railway Colony, Barmer - RSPCB",21-04-2026 17:00,25.747299,71.393989,PM2.5,10,107,26
India,Rajasthan,Barmer,"Railway Colony, Barmer - RSPCB",21-04-2026 17:00,25.747299,71.393989,NO2,2,22,10
India,Rajasthan,Barmer,"Railway Colony, Barmer - RSPCB",21-04-2026 17:00,25.747299,71.393989,NH3,3,10,5
India,Rajasthan,Bharatpur,"Krishna Nagar, Bharatpur - RSPCB",21-04-2026 17:00,27.215415,77.50873,PM2.5,13,58,30
India,Rajasthan,Bhilwara,"Pratap Nagar, Bhilwara - RSPCB",21-04-2026 17:00,25.339605,74.618883,PM10,50,140,109
India,Rajasthan,Bhiwadi,"RIICO Ind. Area III, Bhiwadi - RSPCB",21-04-2026 17:00,28.194909,76.862296,PM2.5,78,268,168
India,Rajasthan,Bhiwadi,"RIICO Ind. Area III, Bhiwadi - RSPCB",21-04-2026 17:00,28.194909,76.862296,SO2,9,20,14
India,Rajasthan,Bhiwadi,"Vasundhara Nagar_UIT, Bhiwadi - RSPCB",21-04-2026 17:00,28.207266,76.829265,NO2,5,70,35
India,Rajasthan,Bikaner,"MM Ground, Bikaner - RSPCB",21-04-2026 17:00,28.018792,73.292658,NO2,NA,NA,NA
India,Rajasthan,Bundi,"New Colony, Bundi - RSPCB",21-04-2026 17:00,25.435774,75.644272,PM10,40,170,82
India,Rajasthan,Bundi,"New Colony, Bundi - RSPCB",21-04-2026 17:00,25.435774,75.644272,NO2,22,74,46
India,Punjab,Bathinda,"Hardev Nagar, Bathinda - PPCB",21-04-2026 17:00,30.233011,74.907758,SO2,7,10,10
India,Punjab,Jalandhar,"Civil Line, Jalandhar - PPCB",21-04-2026 17:00,31.321907,75.578914,PM2.5,24,79,58
India,Punjab,Jalandhar,"Civil Line, Jalandhar - PPCB",21-04-2026 17:00,31.321907,75.578914,NO2,30,36,33
India,Punjab,Jalandhar,"Civil Line, Jalandhar - PPCB",21-04-2026 17:00,31.321907,75.578914,OZONE,39,48,44
India,Punjab,Ludhiana,"Punjab Agricultural University, Ludhiana - PPCB",21-04-2026 17:00,30.9028,75.8086,PM2.5,68,109,86
India,Punjab,Ludhiana,"Punjab Agricultural University, Ludhiana - PPCB",21-04-2026 17:00,30.9028,75.8086,NH3,12,13,12
India,Punjab,Patiala,"Model Town, Patiala - PPCB",21-04-2026 17:00,30.349388,76.366642,OZONE,14,53,36
India,Rajasthan,Chittorgarh,"Shastri Nagar, Chittorgarh - RSPCB",21-04-2026 17:00,24.892047,74.623527,PM10,42,146,79
India,Rajasthan,Chittorgarh,"Shastri Nagar, Chittorgarh - RSPCB",21-04-2026 17:00,24.892047,74.623527,NO2,4,60,21
India,Rajasthan,Churu,"Subash Chowk, Churu - RSPCB",21-04-2026 17:00,28.296139,74.961696,NO2,6,29,17
India,Rajasthan,Churu,"Subash Chowk, Churu - RSPCB",21-04-2026 17:00,28.296139,74.961696,OZONE,39,163,141
India,Rajasthan,Dausa,"Khatikan Mohalla, Dausa - RSPCB",21-04-2026 17:00,26.895552,76.334753,NH3,4,17,11
India,Rajasthan,Dungarpur,"Bhoiwada, Dungarpur - RSPCB",21-04-2026 17:00,23.837789,73.714926,PM2.5,10,57,34
India,Rajasthan,Dungarpur,"Bhoiwada, Dungarpur - RSPCB",21-04-2026 17:00,23.837789,73.714926,CO,21,40,24
India,Rajasthan,Jaipur,"Shastri Nagar, Jaipur - RSPCB",21-04-2026 17:00,26.9502929,75.730943,NO2,34,86,54
India,Rajasthan,Jaipur,"Shastri Nagar, Jaipur - RSPCB",21-04-2026 17:00,26.9502929,75.730943,NH3,8,15,11
India,Rajasthan,Jaisalmer,"Sadar Bazar, Jaisalmer - RSPCB",21-04-2026 17:00,26.912329,70.909168,NH3,13,19,15
India,Rajasthan,Jhalawar,"Rajlaxmi Nagar, Jhalawar - RSPCB",21-04-2026 17:00,24.588397,76.172782,SO2,8,78,20
India,Rajasthan,Jhunjhunu,"Indra Nagar, Jhunjhunu - RSPCB",21-04-2026 17:00,28.108988,75.386577,OZONE,20,134,106
India,Rajasthan,Jodhpur,"Jhalamand, Jodhpur - RSPCB",21-04-2026 17:00,26.215415,73.070156,CO,6,22,9
India,Rajasthan,Jodhpur,"Samrat Ashok Udhyan, Jodhpur - RSPCB",21-04-2026 17:00,26.253384,72.976571,NO2,2,43,8
India,Rajasthan,Pratapgarh,"Pragati Nagar, Pratapgarh - RSPCB",21-04-2026 17:00,24.041198,74.780702,NO2,6,50,16
India,Rajasthan,Pratapgarh,"Pragati Nagar, Pratapgarh - RSPCB",21-04-2026 17:00,24.041198,74.780702,NH3,5,10,8
India,Rajasthan,Pratapgarh,"Pragati Nagar, Pratapgarh - RSPCB",21-04-2026 17:00,24.041198,74.780702,CO,11,26,12
India,Telangana,Hyderabad,"New Malakpet, Hyderabad - TSPCB",21-04-2026 17:00,17.37206,78.50864,PM10,79,106,88
India,Telangana,Hyderabad,"New Malakpet, Hyderabad - TSPCB",21-04-2026 17:00,17.37206,78.50864,SO2,13,19,16
India,Telangana,Hyderabad,"New Malakpet, Hyderabad - TSPCB",21-04-2026 17:00,17.37206,78.50864,CO,26,40,35
India,Telangana,Hyderabad,"New Malakpet, Hyderabad - TSPCB",21-04-2026 17:00,17.37206,78.50864,OZONE,12,41,31
India,Telangana,Hyderabad,"Ramachandrapuram, Hyderabad - TSPCB",21-04-2026 17:00,17.528544,78.286195,CO,28,53,32
India,Telangana,Hyderabad,"Ramachandrapuram, Hyderabad - TSPCB",21-04-2026 17:00,17.528544,78.286195,OZONE,25,36,31
India,Telangana,Hyderabad,"Sanathnagar, Hyderabad - TSPCB",21-04-2026 17:00,17.4559458,78.4332152,SO2,NA,NA,NA
India,Telangana,Hyderabad,"Sanathnagar, Hyderabad - TSPCB",21-04-2026 17:00,17.4559458,78.4332152,OZONE,11,18,15
India,Telangana,Hyderabad,"Zoo Park, Hyderabad - TSPCB",21-04-2026 17:00,17.349694,78.451437,CO,1,34,27
India,Telangana,Hyderabad,"Zoo Park, Hyderabad - TSPCB",21-04-2026 17:00,17.349694,78.451437,OZONE,22,27,23
India,Tripura,Agartala,"Bardowali, Agartala - Tripura SPCB",21-04-2026 17:00,23.8175497,91.2726974,PM2.5,32,89,64
India,Tripura,Agartala,"Bardowali, Agartala - Tripura SPCB",21-04-2026 17:00,23.8175497,91.2726974,NO2,16,19,18
India,Tripura,Agartala,"Bardowali, Agartala - Tripura SPCB",21-04-2026 17:00,23.8175497,91.2726974,OZONE,3,14,12
India,TamilNadu,Chennai,"Perungudi, Chennai - TNPCB",21-04-2026 17:00,12.9533,80.2357,NO2,2,7,4
India,TamilNadu,Chennai,"Royapuram, Chennai - TNPCB",21-04-2026 17:00,13.1036,80.2909,PM10,6,362,46
India,TamilNadu,Chennai,"Royapuram, Chennai - TNPCB",21-04-2026 17:00,13.1036,80.2909,SO2,5,7,6
India,TamilNadu,Chennai,"Royapuram, Chennai - TNPCB",21-04-2026 17:00,13.1036,80.2909,CO,20,25,23
India,TamilNadu,Chennai,"Velachery Res. Area, Chennai - CPCB",21-04-2026 17:00,13.0052189,80.2398125,PM10,25,63,37
India,TamilNadu,Coimbatore,"SIDCO Kurichi, Coimbatore - TNPCB",21-04-2026 17:00,10.942451,76.978996,PM2.5,30,71,51
India,TamilNadu,Coimbatore,"SIDCO Kurichi, Coimbatore - TNPCB",21-04-2026 17:00,10.942451,76.978996,OZONE,20,20,20
India,TamilNadu,Gummidipoondi,"Anthoni Pillai Nagar, Gummidipoondi - TNPCB",21-04-2026 17:00,13.4127,80.1081,PM2.5,12,430,87
India,TamilNadu,Gummidipoondi,"Anthoni Pillai Nagar, Gummidipoondi - TNPCB",21-04-2026 17:00,13.4127,80.1081,NH3,1,1,1
India,Uttar_Pradesh,Agra,"Manoharpur, Agra - UPPCB",21-04-2026 17:00,27.23711,78.01936,NH3,5,19,12
India,Uttar_Pradesh,Agra,"Sanjay Palace, Agra - UPPCB",21-04-2026 17:00,27.19865833,78.00598056,SO2,17,18,18
India,Uttar_Pradesh,Agra,"Sector-3B Avas Vikas Colony, Agra - UPPCB",21-04-2026 17:00,27.19412,77.96237,PM2.5,NA,NA,NA
India,Uttar_Pradesh,Agra,"Sector-3B Avas Vikas Colony, Agra - UPPCB",21-04-2026 17:00,27.19412,77.96237,OZONE,2,58,42
India,Uttar_Pradesh,Agra,"Shahjahan Garden, Agra - UPPCB",21-04-2026 17:00,27.169338,78.03582,NO2,32,44,37
India,Uttar_Pradesh,Agra,"Shastripuram, Agra - UPPCB",21-04-2026 17:00,27.19862,77.92066,PM2.5,20,79,50
India,Uttar_Pradesh,Agra,"Shastripuram, Agra - UPPCB",21-04-2026 17:00,27.19862,77.92066,NH3,3,3,3
India,Uttar_Pradesh,Baghpat,"Sardar Patel Inter College, Baghpat - UPPCB",21-04-2026 17:00,28.964949,77.278761,PM10,114,500,250
India,Uttar_Pradesh,Baghpat,"Sardar Patel Inter College, Baghpat - UPPCB",21-04-2026 17:00,28.964949,77.278761,CO,13,102,46
India,Uttar_Pradesh,Bareilly,"Civil Lines, Bareilly - UPPCB",21-04-2026 17:00,28.359581,79.414455,OZONE,9,124,36
India,Uttar_Pradesh,Bulandshahr,"Yamunapuram, Bulandshahr - UPPCB",21-04-2026 17:00,28.406963,77.849831,PM10,127,311,200
India,Uttar_Pradesh,Bulandshahr,"Yamunapuram, Bulandshahr - UPPCB",21-04-2026 17:00,28.406963,77.849831,CO,2,109,28
India,Uttar_Pradesh,Bulandshahr,"Yamunapuram, Bulandshahr - UPPCB",21-04-2026 17:00,28.406963,77.849831,OZONE,3,73,66
India,Uttar_Pradesh,Firozabad,"Vibhab Nagar, Firozabad - UPPCB",21-04-2026 17:00,27.1594,78.3953,PM10,88,151,120
India,Telangana,Hyderabad,"ICRISAT Patancheru, Hyderabad - TSPCB",21-04-2026 17:00,17.5184,78.278777,SO2,11,53,17
India,Telangana,Hyderabad,"Kokapet, Hyderabad - TSPCB",21-04-2026 17:00,17.393559,78.339194,PM10,77,101,88
India,Telangana,Hyderabad,"Kokapet, Hyderabad - TSPCB",21-04-2026 17:00,17.393559,78.339194,NH3,2,3,2
India,Telangana,Hyderabad,"Kompally Municipal Office, Hyderabad - TSPCB",21-04-2026 17:00,17.544899,78.486949,SO2,4,26,9
India,Telangana,Hyderabad,"Nacharam_TSIIC IALA, Hyderabad - TSPCB",21-04-2026 17:00,17.429398,78.569354,PM2.5,60,93,69
India,Telangana,Hyderabad,"Nacharam_TSIIC IALA, Hyderabad - TSPCB",21-04-2026 17:00,17.429398,78.569354,NH3,5,8,6
India,Telangana,Hyderabad,"Nacharam_TSIIC IALA, Hyderabad - TSPCB",21-04-2026 17:00,17.429398,78.569354,SO2,10,16,13
India,Rajasthan,Sawai Madhopur,"Sahu Nagar, Sawai Madhopur - RSPCB",21-04-2026 17:00,26.031443,76.359327,NO2,8,86,38
India,Rajasthan,Sikar,"Radhakishan Pura, Sikar - RSPCB",21-04-2026 17:00,27.608912,75.153302,PM10,89,271,148
India,Rajasthan,Sikar,"Radhakishan Pura, Sikar - RSPCB",21-04-2026 17:00,27.608912,75.153302,NH3,7,12,9
India,Rajasthan,Sirohi,"Vedhaynath Colony, Sirohi - RSPCB",21-04-2026 17:00,24.885261,72.857549,NH3,3,5,4
India,Rajasthan,Tonk,"Shastri Nagar, Tonk - RSPCB",21-04-2026 17:00,26.159933,75.780517,CO,14,48,40
India,TamilNadu,Ooty,"Bombay Castel, Ooty - TNPCB",21-04-2026 17:00,11.4068288,76.7138973,SO2,3,4,3
India,TamilNadu,Perundurai,"SIPCOT Industrial Park, Perundurai - TNPCB",21-04-2026 17:00,11.258242,77.552761,PM2.5,21,62,40
India,TamilNadu,Perundurai,"SIPCOT Industrial Park, Perundurai - TNPCB",21-04-2026 17:00,11.258242,77.552761,NH3,3,3,3
India,TamilNadu,Perundurai,"SIPCOT Industrial Park, Perundurai - TNPCB",21-04-2026 17:00,11.258242,77.552761,SO2,16,17,17
India,Telangana,Hyderabad,"Central University, Hyderabad - TSPCB",21-04-2026 17:00,17.460103,78.334361,NH3,2,5,3
India,Sikkim,Gangtok,"Zero Point GICI, Gangtok - SSPCB",21-04-2026 17:00,27.33853,88.614099,NO2,6,7,6
India,TamilNadu,Chennai,"Kodungaiyur, Chennai - TNPCB",21-04-2026 17:00,13.1278,80.2642,NO2,10,16,14
India,TamilNadu,Chennai,"Manali Village, Chennai - TNPCB",21-04-2026 17:00,13.1662,80.2584,CO,44,49,47
India,TamilNadu,Chennai,"Manali, Chennai - CPCB",21-04-2026 17:00,13.164544,80.26285,SO2,10,18,14
India,Rajasthan,Rajsamand,"Dhoinda, Rajsamand - RSPCB",21-04-2026 17:00,25.03636,73.883502,NO2,9,35,15
India,Uttar_Pradesh,Lucknow,"Kukrail Picnic Spot-1, Lucknow - UPPCB",21-04-2026 17:00,26.90723,80.98579,CO,14,24,17
India,Uttar_Pradesh,Lucknow,"Lalbagh, Lucknow - CPCB",21-04-2026 17:00,26.8458805,80.9365541,PM2.5,88,342,166
India,Uttar_Pradesh,Lucknow,"Lalbagh, Lucknow - CPCB",21-04-2026 17:00,26.8458805,80.9365541,PM10,106,158,128
India,Uttar_Pradesh,Lucknow,"Lalbagh, Lucknow - CPCB",21-04-2026 17:00,26.8458805,80.9365541,SO2,3,19,8
India,Uttar_Pradesh,Lucknow,"Lalbagh, Lucknow - CPCB",21-04-2026 17:00,26.8458805,80.9365541,OZONE,10,60,57
India,Uttar_Pradesh,Lucknow,"Talkatora District Industries Center, Lucknow - CPCB",21-04-2026 17:00,26.83399722,80.8917361,PM2.5,77,250,151
India,Uttar_Pradesh,Lucknow,"Talkatora District Industries Center, Lucknow - CPCB",21-04-2026 17:00,26.83399722,80.8917361,NO2,32,57,37
India,Uttar_Pradesh,Meerut,"Ganga Nagar, Meerut - UPPCB",21-04-2026 17:00,28.999264,77.7590354,PM10,139,315,201
India,Uttar_Pradesh,Meerut,"Ganga Nagar, Meerut - UPPCB",21-04-2026 17:00,28.999264,77.7590354,NO2,81,119,109
India,Uttar_Pradesh,Meerut,"MIET College, Meerut - UPPCB",21-04-2026 17:00,28.972677,77.641018,PM2.5,190,369,316
India,Uttar_Pradesh,Meerut,"MIET College, Meerut - UPPCB",21-04-2026 17:00,28.972677,77.641018,PM10,118,281,198
India,Uttar_Pradesh,Meerut,"MIET College, Meerut - UPPCB",21-04-2026 17:00,28.972677,77.641018,SO2,17,49,32
India,Uttar_Pradesh,Greater Noida,"Knowledge Park - V, Greater Noida - UPPCB",21-04-2026 17:00,28.557054,77.453663,CO,18,62,27
India,Uttar_Pradesh,Hapur,"Anand Vihar, Hapur - UPPCB",21-04-2026 17:00,28.725645,77.749675,PM2.5,36,213,125
India,Uttar_Pradesh,Hapur,"Anand Vihar, Hapur - UPPCB",21-04-2026 17:00,28.725645,77.749675,SO2,23,101,61
India,Uttar_Pradesh,Jhansi,"Shivaji Nagar, Jhansi - UPPCB",21-04-2026 17:00,25.4547,78.6039,PM2.5,14,49,28
India,Uttar_Pradesh,Jhansi,"Shivaji Nagar, Jhansi - UPPCB",21-04-2026 17:00,25.4547,78.6039,PM10,39,99,63
India,Uttar_Pradesh,Kanpur,"FTI Kidwai Nagar, Kanpur - UPPCB",21-04-2026 17:00,26.428282,80.327067,CO,22,40,32
India,Uttar_Pradesh,Kanpur,"NSI Kalyanpur, Kanpur - UPPCB",21-04-2026 17:00,26.509954,80.249612,NO2,28,29,28
India,Uttar_Pradesh,Kanpur,"NSI Kalyanpur, Kanpur - UPPCB",21-04-2026 17:00,26.509954,80.249612,SO2,12,24,15
India,Uttar_Pradesh,Kanpur,"NSI Kalyanpur, Kanpur - UPPCB",21-04-2026 17:00,26.509954,80.249612,OZONE,15,18,16
India,Uttar_Pradesh,Kanpur,"Nehru Nagar, Kanpur - UPPCB",21-04-2026 17:00,26.4703136,80.3229863,PM2.5,20,110,61
India,Uttar_Pradesh,Kanpur,"Nehru Nagar, Kanpur - UPPCB",21-04-2026 17:00,26.4703136,80.3229863,OZONE,5,27,25
India,Uttar_Pradesh,Ghaziabad,"Loni, Ghaziabad - UPPCB",21-04-2026 17:00,28.757294,77.278792,OZONE,7,124,100
India,Uttar_Pradesh,Ghaziabad,"Vasundhara, Ghaziabad - UPPCB",21-04-2026 17:00,28.6603346,77.3572563,PM2.5,31,302,121
India,Uttar_Pradesh,Ghaziabad,"Vasundhara, Ghaziabad - UPPCB",21-04-2026 17:00,28.6603346,77.3572563,PM10,134,288,204
India,Uttar_Pradesh,Ghaziabad,"Ved Vihar-Loni, Ghaziabad - UPPCB",21-04-2026 17:00,28.739153,77.273668,PM2.5,154,345,282
India,Uttar_Pradesh,Gorakhpur,"Madan Mohan Malaviya University of Technology, Gorakhpur - UPPCB",21-04-2026 17:00,26.730136,83.433859,SO2,48,49,48
India,Uttar_Pradesh,Gorakhpur,"Madan Mohan Malaviya University of Technology, Gorakhpur - UPPCB",21-04-2026 17:00,26.730136,83.433859,CO,4,6,5
India,Uttar_Pradesh,Gorakhpur,"Madan Mohan Malaviya University of Technology, Gorakhpur - UPPCB",21-04-2026 17:00,26.730136,83.433859,OZONE,1,15,6
India,Uttar_Pradesh,Greater Noida,"Knowledge Park - III, Greater Noida - UPPCB",21-04-2026 17:00,28.47272,77.482,NO2,18,107,57
India,Uttar_Pradesh,Greater Noida,"Knowledge Park - III, Greater Noida - UPPCB",21-04-2026 17:00,28.47272,77.482,NH3,6,11,8
India,Uttar_Pradesh,Greater Noida,"Knowledge Park - III, Greater Noida - UPPCB",21-04-2026 17:00,28.47272,77.482,OZONE,4,144,118
India,Uttar_Pradesh,Khora,"Prashant Garden, Khora - UPPCB",21-04-2026 17:00,28.61119,77.34206,PM10,145,255,199
India,Uttar_Pradesh,Khora,"Prashant Garden, Khora - UPPCB",21-04-2026 17:00,28.61119,77.34206,NO2,96,157,124
India,Uttar_Pradesh,Khora,"Prashant Garden, Khora - UPPCB",21-04-2026 17:00,28.61119,77.34206,OZONE,9,277,180
India,Uttar_Pradesh,Khurja,"Kalindi Kunj, Khurja - UPPCB",21-04-2026 17:00,28.2348927,77.8683002,NO2,12,13,12
India,Uttar_Pradesh,Khurja,"Kalindi Kunj, Khurja - UPPCB",21-04-2026 17:00,28.2348927,77.8683002,CO,15,90,52
India,Uttar_Pradesh,Lucknow,"B R Ambedkar University, Lucknow - UPPCB",21-04-2026 17:00,26.766433,80.927299,CO,20,30,28
India,Uttar_Pradesh,Lucknow,"Kendriya Vidyalaya, Lucknow - CPCB",21-04-2026 17:00,26.906111,80.948222,NH3,8,18,13
India,Uttar_Pradesh,Lucknow,"Kukrail Picnic Spot-1, Lucknow - UPPCB",21-04-2026 17:00,26.90723,80.98579,NH3,6,6,6
India,Uttar_Pradesh,Moradabad,"Jigar Colony, Moradabad - UPPCB",21-04-2026 17:00,28.856664,78.772638,NO2,22,23,23
India,Uttar_Pradesh,Moradabad,"Jigar Colony, Moradabad - UPPCB",21-04-2026 17:00,28.856664,78.772638,SO2,NA,NA,NA
India,Uttar_Pradesh,Moradabad,"Kashiram Nagar, Moradabad - UPPCB",21-04-2026 17:00,28.849399,78.742362,PM10,42,139,91
India,Uttar_Pradesh,Moradabad,"Kashiram Nagar, Moradabad - UPPCB",21-04-2026 17:00,28.849399,78.742362,OZONE,1,87,73
India,Uttar_Pradesh,Moradabad,"Transport Nagar, Moradabad - UPPCB",21-04-2026 17:00,28.802625,78.753728,NO2,29,30,29
India,Uttar_Pradesh,Muzaffarnagar,"New Mandi, Muzaffarnagar - UPPCB",21-04-2026 17:00,29.4723508,77.7194031,PM10,120,194,165
India,Uttar_Pradesh,Noida,"Sector - 125, Noida - UPPCB",21-04-2026 17:00,28.5447608,77.3231257,PM10,108,296,180
India,Uttar_Pradesh,Modinagar,"SRM University, Modinagar - UPPCB",21-04-2026 17:00,28.798171,77.540243,PM2.5,70,330,227
India,Uttar_Pradesh,Modinagar,"SRM University, Modinagar - UPPCB",21-04-2026 17:00,28.798171,77.540243,CO,38,74,45
India,Uttar_Pradesh,Moradabad,"Buddhi Vihar, Moradabad - UPPCB",21-04-2026 17:00,28.83526,78.7446,NO2,28,29,29
India,Uttar_Pradesh,Moradabad,"Eco Herbal Park, Moradabad - UPPCB",21-04-2026 17:00,28.840739,78.697531,PM2.5,16,179,87
India,Uttar_Pradesh,Moradabad,"Eco Herbal Park, Moradabad - UPPCB",21-04-2026 17:00,28.840739,78.697531,SO2,10,35,19
India,Uttar_Pradesh,Moradabad,"Employment Office, Moradabad - UPPCB",21-04-2026 17:00,28.88528,78.7388,NO2,15,16,16
India,Uttar_Pradesh,Moradabad,"Employment Office, Moradabad - UPPCB",21-04-2026 17:00,28.88528,78.7388,NH3,3,4,4
India,Uttar_Pradesh,Ghaziabad,"Indirapuram, Ghaziabad - UPPCB",21-04-2026 17:00,28.646233,77.358075,PM10,119,306,181
India,Uttar_Pradesh,Ghaziabad,"Indirapuram, Ghaziabad - UPPCB",21-04-2026 17:00,28.646233,77.358075,OZONE,13,67,58
India,Uttar_Pradesh,Ghaziabad,"Loni, Ghaziabad - UPPCB",21-04-2026 17:00,28.757294,77.278792,PM10,153,438,333
India,Uttar_Pradesh,Noida,"Sector-1, Noida - UPPCB",21-04-2026 17:00,28.5898,77.3101,PM2.5,37,304,101
India,Uttar_Pradesh,Noida,"Sector-1, Noida - UPPCB",21-04-2026 17:00,28.5898,77.3101,PM10,130,324,206
India,Uttar_Pradesh,Noida,"Sector-116, Noida - UPPCB",21-04-2026 17:00,28.56923,77.393848,CO,2,68,18
India,Uttar_Pradesh,Prayagraj,"Jhunsi, Prayagraj - UPPCB",21-04-2026 17:00,25.425602,81.917152,PM10,59,115,82
India,Uttar_Pradesh,Prayagraj,"Jhunsi, Prayagraj - UPPCB",21-04-2026 17:00,25.425602,81.917152,NO2,6,6,6
India,Uttar_Pradesh,Prayagraj,"Jhunsi, Prayagraj - UPPCB",21-04-2026 17:00,25.425602,81.917152,CO,8,23,14
India,Uttar_Pradesh,Prayagraj,"Motilal Nehru NIT, Prayagraj - UPPCB",21-04-2026 17:00,25.494,81.863,NO2,12,12,12
India,Uttar_Pradesh,Prayagraj,"Motilal Nehru NIT, Prayagraj - UPPCB",21-04-2026 17:00,25.494,81.863,NH3,7,9,8
India,Uttar_Pradesh,Prayagraj,"Motilal Nehru NIT, Prayagraj - UPPCB",21-04-2026 17:00,25.494,81.863,SO2,25,30,28
India,Uttar_Pradesh,Prayagraj,"Motilal Nehru NIT, Prayagraj - UPPCB",21-04-2026 17:00,25.494,81.863,CO,8,23,12
India,Uttar_Pradesh,Prayagraj,"Nagar Nigam, Prayagraj - UPPCB",21-04-2026 17:00,25.44919916,81.82735986,OZONE,11,13,12
India,Uttar_Pradesh,Varanasi,"Ardhali Bazar, Varanasi - UPPCB",21-04-2026 17:00,25.3505986,82.9083074,NO2,39,43,41
India,Uttar_Pradesh,Varanasi,"Ardhali Bazar, Varanasi - UPPCB",21-04-2026 17:00,25.3505986,82.9083074,SO2,10,11,11
India,Uttar_Pradesh,Varanasi,"Bhelupur, Varanasi - UPPCB",21-04-2026 17:00,25.301778,82.996789,PM10,65,160,102
India,Uttar_Pradesh,Varanasi,"Bhelupur, Varanasi - UPPCB",21-04-2026 17:00,25.301778,82.996789,NO2,8,8,8
India,Uttar_Pradesh,Varanasi,"Bhelupur, Varanasi - UPPCB",21-04-2026 17:00,25.301778,82.996789,NH3,1,1,1
India,Uttar_Pradesh,Varanasi,"Bhelupur, Varanasi - UPPCB",21-04-2026 17:00,25.301778,82.996789,SO2,26,31,29
India,Uttar_Pradesh,Varanasi,"Maldahiya, Varanasi - UPPCB",21-04-2026 17:00,25.32393,82.99687,OZONE,3,9,8
India,Uttarakhand,Dehradun,"Doon University, Dehradun - UKPCB",21-04-2026 17:00,30.269444,78.044167,PM10,20,74,38
India,West_Bengal,Asansol,"Asansol Court Area, Asansol - WBPCB",21-04-2026 17:00,23.685297,86.945968,PM2.5,51,202,111
India,West_Bengal,Asansol,"Evelyn Lodge, Asansol - WBPCB",21-04-2026 17:00,23.697936,86.944395,OZONE,24,78,66
India,West_Bengal,Asansol,"Mahabir Colliery, Asansol - WBPCB",21-04-2026 17:00,23.618183,87.105718,SO2,3,6,4
India,West_Bengal,Asansol,"Trivenidevi Bhalotia College, Asansol - WBPCB",21-04-2026 17:00,23.616515,87.119133,PM10,35,72,56
India,West_Bengal,Asansol,"Trivenidevi Bhalotia College, Asansol - WBPCB",21-04-2026 17:00,23.616515,87.119133,NH3,3,10,6
India,West_Bengal,Durgapur,"Mahishkapur Road_B-Zone, Durgapur - WBPCB",21-04-2026 17:00,23.567923,87.306843,NO2,3,21,12
India,West_Bengal,Durgapur,"Mahishkapur Road_B-Zone, Durgapur - WBPCB",21-04-2026 17:00,23.567923,87.306843,NH3,2,8,4
India,West_Bengal,Durgapur,"Mahishkapur Road_B-Zone, Durgapur - WBPCB",21-04-2026 17:00,23.567923,87.306843,CO,36,60,41
India,West_Bengal,Durgapur,"Mahishkapur Road_B-Zone, Durgapur - WBPCB",21-04-2026 17:00,23.567923,87.306843,OZONE,3,91,82
India,West_Bengal,Durgapur,"Womens College_City Center, Durgapur - WBPCB",21-04-2026 17:00,23.549395,87.300496,PM2.5,51,83,67
India,West_Bengal,Durgapur,"Womens College_City Center, Durgapur - WBPCB",21-04-2026 17:00,23.549395,87.300496,PM10,50,108,83
India,West_Bengal,Durgapur,"Womens College_City Center, Durgapur - WBPCB",21-04-2026 17:00,23.549395,87.300496,NH3,3,5,4
India,West_Bengal,Howrah,"Belur Math, Howrah - WBPCB",21-04-2026 17:00,22.629801,88.352017,PM2.5,33,70,50
India,West_Bengal,Howrah,"Botanical Garden, Howrah - WBPCB",21-04-2026 17:00,22.554954,88.292568,PM10,45,71,55
India,West_Bengal,Howrah,"Botanical Garden, Howrah - WBPCB",21-04-2026 17:00,22.554954,88.292568,CO,8,22,17
India,West_Bengal,Howrah,"Ghusuri, Howrah - WBPCB",21-04-2026 17:00,22.611968,88.347422,NH3,2,3,2
India,West_Bengal,Howrah,"Padmapukur, Howrah - WBPCB",21-04-2026 17:00,22.5687319,88.2797276,PM2.5,27,71,42
India,West_Bengal,Howrah,"Padmapukur, Howrah - WBPCB",21-04-2026 17:00,22.5687319,88.2797276,NO2,12,12,12
India,West_Bengal,Howrah,"Padmapukur, Howrah - WBPCB",21-04-2026 17:00,22.5687319,88.2797276,SO2,5,42,21
India,West_Bengal,Kolkata,"Ballygunge, Kolkata - WBPCB",21-04-2026 17:00,22.5367507,88.3638022,CO,13,24,20
India,West_Bengal,Kolkata,"Ballygunge, Kolkata - WBPCB",21-04-2026 17:00,22.5367507,88.3638022,OZONE,16,37,29
India,West_Bengal,Kolkata,"Bidhannagar, Kolkata - WBPCB",21-04-2026 17:00,22.58157048,88.41002457,SO2,7,12,9
India,West_Bengal,Kolkata,"Fort William, Kolkata - WBPCB",21-04-2026 17:00,22.55664,88.342674,SO2,3,19,6
India,West_Bengal,Kolkata,"Jadavpur, Kolkata - WBPCB",21-04-2026 17:00,22.49929,88.36917,PM10,34,66,50
India,West_Bengal,Kolkata,"Jadavpur, Kolkata - WBPCB",21-04-2026 17:00,22.49929,88.36917,CO,19,28,22
India,West_Bengal,Kolkata,"Rabindra Bharati University, Kolkata - WBPCB",21-04-2026 17:00,22.627847,88.380669,PM10,44,80,61
India,West_Bengal,Kolkata,"Rabindra Sarobar, Kolkata - WBPCB",21-04-2026 17:00,22.51106,88.35142,CO,15,25,22
India,West_Bengal,Kolkata,"Rabindra Sarobar, Kolkata - WBPCB",21-04-2026 17:00,22.51106,88.35142,OZONE,12,31,24
India,West_Bengal,Siliguri,"Ward-32 Bapupara, Siliguri - WBPCB",21-04-2026 17:00,26.6879226,88.4152495,PM2.5,48,74,58
India,West_Bengal,Siliguri,"Ward-32 Bapupara, Siliguri - WBPCB",21-04-2026 17:00,26.6879226,88.4152495,PM10,67,111,87
India,Andhra_Pradesh,Vijayawada,"Rajiv Nagar, Vijayawada - APPCB",21-04-2026 17:00,16.554731,80.64911,OZONE,25,36,31
India,Andhra_Pradesh,Visakhapatnam,"GVM Corporation, Visakhapatnam - APPCB",21-04-2026 17:00,17.72,83.3,NO2,25,83,55
India,Andhra_Pradesh,Visakhapatnam,"GVM Corporation, Visakhapatnam - APPCB",21-04-2026 17:00,17.72,83.3,SO2,17,94,52
India,Andhra_Pradesh,Visakhapatnam,"GVM Corporation, Visakhapatnam - APPCB",21-04-2026 17:00,17.72,83.3,OZONE,4,21,17
India,Arunachal_Pradesh,Naharlagun,"Naharlagun, Naharlagun - APSPCB",21-04-2026 17:00,27.103358,93.679645,NH3,1,1,1
India,Arunachal_Pradesh,Naharlagun,"Naharlagun, Naharlagun - APSPCB",21-04-2026 17:00,27.103358,93.679645,SO2,10,11,10
India,Assam,Byrnihat,"Central Academy for SFS, Byrnihat - PCBA",21-04-2026 17:00,26.071318,91.87488,NH3,4,4,4
India,Assam,Guwahati,"LGBI Airport, Guwahati - PCBA",21-04-2026 17:00,26.10887,91.589544,PM2.5,12,54,36
India,Assam,Guwahati,"LGBI Airport, Guwahati - PCBA",21-04-2026 17:00,26.10887,91.589544,NH3,1,25,5
India,Assam,Guwahati,"LGBI Airport, Guwahati - PCBA",21-04-2026 17:00,26.10887,91.589544,CO,8,60,39
India,Assam,Guwahati,"Pan Bazaar, Guwahati - PCBA",21-04-2026 17:00,26.1875,91.744194,PM10,NA,NA,NA
India,Assam,Guwahati,"Pan Bazaar, Guwahati - PCBA",21-04-2026 17:00,26.1875,91.744194,NH3,NA,NA,NA
India,Bihar,Bhagalpur,"Mayaganj, Bhagalpur - BSPCB",21-04-2026 17:00,25.265194,87.012947,SO2,51,64,56
India,Bihar,Bhagalpur,"Mayaganj, Bhagalpur - BSPCB",21-04-2026 17:00,25.265194,87.012947,CO,78,98,83
India,Bihar,Bhagalpur,"Mayaganj, Bhagalpur - BSPCB",21-04-2026 17:00,25.265194,87.012947,OZONE,9,48,22
India,Bihar,Bihar Sharif,"D M Colony, Bihar Sharif - BSPCB",21-04-2026 17:00,25.204762,85.51496,PM10,15,79,43
India,Bihar,Bihar Sharif,"D M Colony, Bihar Sharif - BSPCB",21-04-2026 17:00,25.204762,85.51496,NH3,3,4,3
India,Bihar,Buxar,"Charitra Van, Buxar - BSPCB",21-04-2026 17:00,25.56752,83.966379,PM2.5,43,98,60
India,Bihar,Buxar,"Charitra Van, Buxar - BSPCB",21-04-2026 17:00,25.56752,83.966379,OZONE,3,26,21
India,Bihar,Gaya,"Kareemganj, Gaya - BSPCB",21-04-2026 17:00,24.792403,84.992416,PM2.5,30,293,116
India,Bihar,Gaya,"Kareemganj, Gaya - BSPCB",21-04-2026 17:00,24.792403,84.992416,NH3,1,6,2
India,Bihar,Gaya,"SFTI Kusdihra, Gaya - BSPCB",21-04-2026 17:00,24.762518,84.982348,NO2,16,33,23
India,Bihar,Gaya,"SFTI Kusdihra, Gaya - BSPCB",21-04-2026 17:00,24.762518,84.982348,CO,6,54,14
India,Bihar,Hajipur,"Industrial Area, Hajipur - BSPCB",21-04-2026 17:00,25.697189,85.2459,NH3,7,12,10
India,Bihar,Muzaffarpur,"Buddha Colony, Muzaffarpur - BSPCB",21-04-2026 17:00,26.11442,85.39813,SO2,4,20,8
India,Bihar,Muzaffarpur,"MIT-Daudpur Kothi, Muzaffarpur - BSPCB",21-04-2026 17:00,26.1403345,85.3650192,PM10,59,72,62
India,Bihar,Muzaffarpur,"MIT-Daudpur Kothi, Muzaffarpur - BSPCB",21-04-2026 17:00,26.1403345,85.3650192,NH3,3,4,4
India,Bihar,Muzaffarpur,"MIT-Daudpur Kothi, Muzaffarpur - BSPCB",21-04-2026 17:00,26.1403345,85.3650192,CO,26,46,35
India,Bihar,Muzaffarpur,"Muzaffarpur Collectorate, Muzaffarpur - BSPCB",21-04-2026 17:00,26.1209,85.3647,SO2,4,9,5
India,Bihar,Muzaffarpur,"Muzaffarpur Collectorate, Muzaffarpur - BSPCB",21-04-2026 17:00,26.1209,85.3647,CO,16,58,41
India,Bihar,Patna,"DRM Office Danapur, Patna - BSPCB",21-04-2026 17:00,25.586562,85.043586,SO2,5,8,6
India,Bihar,Patna,"Govt. High School Shikarpur, Patna - BSPCB",21-04-2026 17:00,25.592539,85.227158,PM2.5,162,357,295
India,Bihar,Patna,"Govt. High School Shikarpur, Patna - BSPCB",21-04-2026 17:00,25.592539,85.227158,NO2,7,38,19
India,Assam,Guwahati,"Railway Colony, Guwahati - PCBA",21-04-2026 17:00,26.181742,91.78063,PM10,15,80,36
India,Assam,Guwahati,"Railway Colony, Guwahati - PCBA",21-04-2026 17:00,26.181742,91.78063,NO2,3,3,3
India,Assam,Guwahati,"Railway Colony, Guwahati - PCBA",21-04-2026 17:00,26.181742,91.78063,NH3,1,1,1
India,Assam,Nagaon,"Christianpatty, Nagaon - PCBA",21-04-2026 17:00,26.349082,92.68449,SO2,5,13,11
India,Assam,Nalbari,"Bata Chowk, Nalbari - PCBA",21-04-2026 17:00,26.446912,91.439057,OZONE,1,149,16
India,Assam,Silchar,"Tarapur, Silchar - PCBA",21-04-2026 17:00,24.82827,92.79525,PM2.5,12,46,24
India,Assam,Silchar,"Tarapur, Silchar - PCBA",21-04-2026 17:00,24.82827,92.79525,NO2,32,33,33
India,Assam,Silchar,"Tarapur, Silchar - PCBA",21-04-2026 17:00,24.82827,92.79525,CO,20,36,28
India,Assam,Sivasagar,"Girls College, Sivasagar - PCBA",21-04-2026 17:00,26.987634,94.636574,PM2.5,16,26,21
India,Bihar,Katihar,"Mirchaibari, Katihar - BSPCB",21-04-2026 17:00,25.560083,87.553265,PM10,NA,NA,NA
India,Bihar,Kishanganj,"SDM Office_Khagra, Kishanganj - BSPCB",21-04-2026 17:00,26.0881305,87.93840336,PM2.5,40,73,53
India,Bihar,Kishanganj,"SDM Office_Khagra, Kishanganj - BSPCB",21-04-2026 17:00,26.0881305,87.93840336,OZONE,32,43,34
India,Bihar,Manguraha,"Forest Rest House, Manguraha - BSPCB",21-04-2026 17:00,27.308328,84.531742,NO2,1,11,5
India,Bihar,Manguraha,"Forest Rest House, Manguraha - BSPCB",21-04-2026 17:00,27.308328,84.531742,SO2,16,17,17
India,Bihar,Motihari,"Gandak Colony, Motihari - BSPCB",21-04-2026 17:00,26.63086,84.90051,NH3,3,3,3
India,Bihar,Motihari,"Gandak Colony, Motihari - BSPCB",21-04-2026 17:00,26.63086,84.90051,SO2,2,3,3
India,Bihar,Munger,"Town Hall, Munger - BSPCB",21-04-2026 17:00,25.376776,86.471523,SO2,5,108,58
India,Andhra_Pradesh,Guntur,"Rajendra Nagar North, Guntur - APPCB",21-04-2026 17:00,16.316553,80.413302,PM10,70,100,83
India,Andhra_Pradesh,Guntur,"Rajendra Nagar North, Guntur - APPCB",21-04-2026 17:00,16.316553,80.413302,CO,4,80,10
India,Andhra_Pradesh,Kadapa,"Yerramukkapalli, Kadapa - APPCB",21-04-2026 17:00,14.465052,78.824187,CO,18,32,24
India,Andhra_Pradesh,Machilipatnam,"Srinivas Nagar Colony, Machilipatnam - APPCB",21-04-2026 17:00,16.186555,81.13219,PM2.5,36,59,42
India,Andhra_Pradesh,Machilipatnam,"Srinivas Nagar Colony, Machilipatnam - APPCB",21-04-2026 17:00,16.186555,81.13219,PM10,41,66,48
India,Andhra_Pradesh,Nellore,"Ambedkar Nagar, Nellore - APPCB ",21-04-2026 17:00,14.438164,79.966814,NO2,18,24,23
India,Andhra_Pradesh,Amaravati,"Secretariat, Amaravati - APPCB",21-04-2026 17:00,16.5150833,80.5181667,PM10,22,106,50
India,Andhra_Pradesh,Anantapur,"Gulzarpet, Anantapur - APPCB",21-04-2026 17:00,14.675886,77.593027,OZONE,33,60,48
India,Andhra_Pradesh,Chittoor,"Gangineni Cheruvu, Chittoor - APPCB",21-04-2026 17:00,13.20488,79.097889,NO2,25,46,30
India,Andhra_Pradesh,Chittoor,"Gangineni Cheruvu, Chittoor - APPCB",21-04-2026 17:00,13.20488,79.097889,OZONE,15,49,36
India,Andhra_Pradesh,Eluru,"District Court, Eluru - APPCB",21-04-2026 17:00,16.711754,81.092095,SO2,9,16,11
India,Andhra_Pradesh,Eluru,"District Court, Eluru - APPCB",21-04-2026 17:00,16.711754,81.092095,CO,26,48,32
India,Andhra_Pradesh,Tirupati,"Vaikuntapuram, Tirupati - APPCB",21-04-2026 17:00,13.615387,79.40923,OZONE,19,40,30
India,Andhra_Pradesh,Vijayawada,"Kanuru, Vijayawada - APPCB",21-04-2026 17:00,16.486692,80.699436,SO2,3,17,13
India,Andhra_Pradesh,Vijayawada,"Kanuru, Vijayawada - APPCB",21-04-2026 17:00,16.486692,80.699436,CO,34,50,46
India,Andhra_Pradesh,Vijayawada,"Rajiv Gandhi Park, Vijayawada - APPCB",21-04-2026 17:00,16.509717,80.612222,NH3,5,9,7
India,Andhra_Pradesh,Vijayawada,"Rajiv Nagar, Vijayawada - APPCB",21-04-2026 17:00,16.554731,80.64911,PM10,NA,NA,NA
India,Andhra_Pradesh,Vijayawada,"Rajiv Nagar, Vijayawada - APPCB",21-04-2026 17:00,16.554731,80.64911,NH3,NA,NA,NA
India,Bihar,Begusarai,"Lohiyanagar, Begusarai - BSPCB",21-04-2026 17:00,25.42742023,86.13886079,PM2.5,25,287,134
India,Bihar,Begusarai,"Lohiyanagar, Begusarai - BSPCB",21-04-2026 17:00,25.42742023,86.13886079,PM10,61,140,102
India,Bihar,Begusarai,"Lohiyanagar, Begusarai - BSPCB",21-04-2026 17:00,25.42742023,86.13886079,OZONE,13,48,44
India,Bihar,Bettiah,"Kamalnath Nagar, Bettiah - BSPCB",21-04-2026 17:00,26.80365,84.51954,NO2,5,11,8
India,Bihar,Bhagalpur,"DM Office_Kachari Chowk, Bhagalpur - BSPCB",21-04-2026 17:00,25.251013,86.989001,PM2.5,25,183,68
India,Bihar,Aurangabad,"Gurdeo Nagar, Aurangabad - BSPCB",21-04-2026 17:00,24.75746,84.366208,OZONE,15,66,60
India,Chandigarh,Chandigarh,"Sector-53, Chandigarh - CPCC",21-04-2026 17:00,30.719859,76.738637,PM2.5,13,55,33
India,Chandigarh,Chandigarh,"Sector-53, Chandigarh - CPCC",21-04-2026 17:00,30.719859,76.738637,PM10,24,88,55
India,Chandigarh,Chandigarh,"Sector-53, Chandigarh - CPCC",21-04-2026 17:00,30.719859,76.738637,SO2,6,6,6
India,Chhattisgarh,Bhilai,"32Bungalows, Bhilai - CECB",21-04-2026 17:00,21.194815,81.31477,NO2,8,35,17
India,Chhattisgarh,Bhilai,"32Bungalows, Bhilai - CECB",21-04-2026 17:00,21.194815,81.31477,CO,12,28,16
India,Chhattisgarh,Bhilai,"Civic Center, Bhilai - Bhilai Steel Plant",21-04-2026 17:00,21.185571,81.343175,NH3,1,2,1
India,Chhattisgarh,Bhilai,"Hathkhoj, Bhilai - CECB",21-04-2026 17:00,21.224231,81.40835,PM2.5,25,39,32
India,Chhattisgarh,Bhilai,"Hathkhoj, Bhilai - CECB",21-04-2026 17:00,21.224231,81.40835,SO2,5,60,19
India,Chhattisgarh,Bhilai,"Hathkhoj, Bhilai - CECB",21-04-2026 17:00,21.224231,81.40835,OZONE,8,18,17
India,Chhattisgarh,Bilaspur,"Mangala, Bilaspur - NTPC",21-04-2026 17:00,22.08815,82.13737,PM10,48,113,77
India,Chhattisgarh,Chhal,"Nawapara SECL Colony, Chhal - CECB",21-04-2026 17:00,22.118125,83.140608,PM2.5,NA,NA,NA
India,Bihar,Patna,"IGSC Planetarium Complex, Patna - BSPCB",21-04-2026 17:00,25.610369,85.132568,CO,6,28,27
India,Bihar,Patna,"Muradpur, Patna - BSPCB",21-04-2026 17:00,25.619651,85.147382,PM10,124,323,204
India,Bihar,Patna,"Muradpur, Patna - BSPCB",21-04-2026 17:00,25.619651,85.147382,OZONE,4,7,6
India,Bihar,Patna,"Rajbansi Nagar, Patna - BSPCB",21-04-2026 17:00,25.599486,85.113666,PM2.5,65,190,128
India,Bihar,Patna,"Rajbansi Nagar, Patna - BSPCB",21-04-2026 17:00,25.599486,85.113666,PM10,90,149,119
India,Bihar,Patna,"Samanpura, Patna - BSPCB",21-04-2026 17:00,25.596727,85.085624,PM10,106,195,158
India,Bihar,Patna,"Samanpura, Patna - BSPCB",21-04-2026 17:00,25.596727,85.085624,NO2,10,16,13
India,Bihar,Patna,"Samanpura, Patna - BSPCB",21-04-2026 17:00,25.596727,85.085624,SO2,4,6,5
India,Bihar,Purnia,"Mariam Nagar, Purnia - BSPCB",21-04-2026 17:00,25.366336,87.117468,PM2.5,63,87,78
India,Bihar,Purnia,"Mariam Nagar, Purnia - BSPCB",21-04-2026 17:00,25.366336,87.117468,OZONE,18,49,29
India,Bihar,Rajgir,"Dangi Tola, Rajgir - BSPCB",21-04-2026 17:00,25.0328,85.41948,NO2,13,15,14
India,Delhi,Delhi,"DTU, Delhi - CPCB",21-04-2026 17:00,28.7500499,77.1112615,PM2.5,32,346,119
India,Delhi,Delhi,"DTU, Delhi - CPCB",21-04-2026 17:00,28.7500499,77.1112615,CO,18,38,26
India,Delhi,Delhi,"Dr. Karni Singh Shooting Range, Delhi - DPCC",21-04-2026 17:00,28.498571,77.26484,PM10,119,308,193
India,Delhi,Delhi,"Dr. Karni Singh Shooting Range, Delhi - DPCC",21-04-2026 17:00,28.498571,77.26484,NO2,13,137,62
India,Delhi,Delhi,"Dwarka-Sector 8, Delhi - DPCC ",21-04-2026 17:00,28.5710274,77.0719006,PM2.5,38,388,140
India,Delhi,Delhi,"Dwarka-Sector 8, Delhi - DPCC ",21-04-2026 17:00,28.5710274,77.0719006,OZONE,11,54,50
India,Delhi,Delhi,"IGI Airport (T3), Delhi - IMD",21-04-2026 17:00,28.5627763,77.1180053,PM10,88,271,166
India,Delhi,Delhi,"IHBAS, Dilshad Garden, Delhi - CPCB",21-04-2026 17:00,28.6811736,77.3025234,PM2.5,49,244,164
India,Delhi,Delhi,"IHBAS, Dilshad Garden, Delhi - CPCB",21-04-2026 17:00,28.6811736,77.3025234,NH3,4,6,5
India,Delhi,Delhi,"IHBAS, Dilshad Garden, Delhi - CPCB",21-04-2026 17:00,28.6811736,77.3025234,CO,12,22,13
India,Chhattisgarh,Raipur,"Siltara Phase-II, Raipur - CECB",21-04-2026 17:00,21.371751,81.664929,NO2,18,43,25
India,Chhattisgarh,Raipur,"Siltara Phase-II, Raipur - CECB",21-04-2026 17:00,21.371751,81.664929,SO2,14,91,50
India,Chhattisgarh,Tumidih,"OP Jindal Industrial Park, Tumidih - CECB",21-04-2026 17:00,22.06631475,83.33820077,PM2.5,41,110,68
India,Chhattisgarh,Tumidih,"OP Jindal Industrial Park, Tumidih - CECB",21-04-2026 17:00,22.06631475,83.33820077,CO,17,79,24
India,Delhi,Delhi,"Alipur, Delhi - DPCC",21-04-2026 17:00,28.815329,77.15301,NO2,18,74,42
India,Delhi,Delhi,"Alipur, Delhi - DPCC",21-04-2026 17:00,28.815329,77.15301,CO,24,44,30
India,Delhi,Delhi,"Anand Vihar, Delhi - DPCC",21-04-2026 17:00,28.647622,77.315809,NO2,51,139,91
India,Delhi,Delhi,"Anand Vihar, Delhi - DPCC",21-04-2026 17:00,28.647622,77.315809,NH3,7,28,13
India,Delhi,Delhi,"Anand Vihar, Delhi - DPCC",21-04-2026 17:00,28.647622,77.315809,SO2,2,39,22
India,Delhi,Delhi,"Ashok Vihar, Delhi - DPCC",21-04-2026 17:00,28.695381,77.181665,NO2,18,85,49
India,Chhattisgarh,Korba,"Rampur, Korba - CECB",21-04-2026 17:00,22.368195,82.746431,PM10,43,171,74
India,Chhattisgarh,Korba,"Rampur, Korba - CECB",21-04-2026 17:00,22.368195,82.746431,NO2,15,93,38
India,Chhattisgarh,Korba,"Rampur, Korba - CECB",21-04-2026 17:00,22.368195,82.746431,SO2,4,84,48
India,Chhattisgarh,Korba,"Rampur, Korba - CECB",21-04-2026 17:00,22.368195,82.746431,CO,14,34,19
India,Chhattisgarh,Korba,"Urja Nagar, Korba - CECB",21-04-2026 17:00,22.348441,82.549611,PM10,20,176,67
India,Chhattisgarh,Raipur,"AIIMS, Raipur - CECB",21-04-2026 17:00,21.258815,81.578979,PM10,33,160,59
India,Chhattisgarh,Raipur,"AIIMS, Raipur - CECB",21-04-2026 17:00,21.258815,81.578979,NH3,3,4,4
India,Chhattisgarh,Raipur,"AIIMS, Raipur - CECB",21-04-2026 17:00,21.258815,81.578979,SO2,1,6,2
India,Chhattisgarh,Raipur,"Krishak Nagar, Raipur - CECB",21-04-2026 17:00,21.237755,81.705301,PM2.5,NA,NA,NA
India,Chhattisgarh,Raipur,"Krishak Nagar, Raipur - CECB",21-04-2026 17:00,21.237755,81.705301,PM10,NA,NA,NA
India,Delhi,Delhi,"Bawana, Delhi - DPCC",21-04-2026 17:00,28.7762,77.051074,PM10,133,370,206
India,Delhi,Delhi,"Bawana, Delhi - DPCC",21-04-2026 17:00,28.7762,77.051074,NO2,6,53,22
India,Delhi,Delhi,"Cantonment Area, Delhi - DPCC ",21-04-2026 17:00,28.594169,77.1251,NO2,2,65,25
India,Delhi,Delhi,"Cantonment Area, Delhi - DPCC ",21-04-2026 17:00,28.594169,77.1251,SO2,5,38,34
India,Delhi,Delhi,"Cantonment Area, Delhi - DPCC ",21-04-2026 17:00,28.594169,77.1251,CO,11,73,33
India,Delhi,Delhi,"Chandni Chowk, Delhi - IITM",21-04-2026 17:00,28.656756,77.227234,SO2,17,42,24
India,Delhi,Delhi,"Commonwealth Sports Complex, Delhi - DPCC",21-04-2026 17:00,28.615828,77.271992,NH3,3,7,5
India,Bihar,Saharsa,"Police Line, Saharsa - BSPCB",21-04-2026 17:00,25.892357,86.590325,NO2,6,8,7
India,Bihar,Saharsa,"Police Line, Saharsa - BSPCB",21-04-2026 17:00,25.892357,86.590325,CO,36,44,41
India,Bihar,Samastipur,"DM Office_Kasipur, Samastipur - BSPCB",21-04-2026 17:00,25.859655,85.77944,PM10,NA,NA,NA
India,Bihar,Samastipur,"DM Office_Kasipur, Samastipur - BSPCB",21-04-2026 17:00,25.859655,85.77944,NH3,NA,NA,NA
India,Chandigarh,Chandigarh,"Sector 22, Chandigarh - CPCC",21-04-2026 17:00,30.735567,76.775714,NH3,13,26,19
India,Delhi,Delhi,"ITO, Delhi - CPCB",21-04-2026 17:00,28.628624,77.24106,OZONE,19,85,70
India,Delhi,Delhi,"JNU, Delhi - DPCC",21-04-2026 17:00,28.540721,77.168544,OZONE,19,146,73
India,Delhi,Delhi,"Jahangirpuri, Delhi - DPCC",21-04-2026 17:00,28.73282,77.170633,SO2,44,78,55
India,Delhi,Delhi,"Jawaharlal Nehru Stadium, Delhi - DPCC",21-04-2026 17:00,28.58028,77.233829,PM10,114,336,177
India,Delhi,Delhi,"Jawaharlal Nehru Stadium, Delhi - DPCC",21-04-2026 17:00,28.58028,77.233829,OZONE,2,81,70
India,Delhi,Delhi,"IIT Delhi, Delhi - IITM",21-04-2026 17:00,28.54246,77.191651,NO2,23,106,58
India,Delhi,Delhi,"ITO, Delhi - CPCB",21-04-2026 17:00,28.628624,77.24106,CO,26,80,36
India,Delhi,Delhi,"Wazirpur, Delhi - DPCC",21-04-2026 17:00,28.699793,77.165453,SO2,15,36,22
India,Gujarat,Ahmedabad,"Chandkheda, Ahmedabad - IITM",21-04-2026 17:00,23.107969,72.574648,SO2,6,21,11
India,Gujarat,Ahmedabad,"Gyaspur, Ahmedabad - IITM",21-04-2026 17:00,22.977134,72.553024,SO2,37,131,84
India,Gujarat,Ahmedabad,"Maninagar, Ahmedabad - GPCB",21-04-2026 17:00,23.002657,72.591912,PM10,56,169,92
India,Gujarat,Ahmedabad,"Maninagar, Ahmedabad - GPCB",21-04-2026 17:00,23.002657,72.591912,SO2,36,100,72
India,Gujarat,Ahmedabad,"Raikhad, Ahmedabad - IITM",21-04-2026 17:00,23.020509,72.579261,PM2.5,37,183,63
India,Gujarat,Ahmedabad,"Raikhad, Ahmedabad - IITM",21-04-2026 17:00,23.020509,72.579261,SO2,3,98,24
India,Gujarat,Ahmedabad,"Rakhial, Ahmedabad - IITM",21-04-2026 17:00,23.016834,72.625775,PM2.5,29,112,54
India,Gujarat,Ahmedabad,"Rakhial, Ahmedabad - IITM",21-04-2026 17:00,23.016834,72.625775,PM10,67,295,122
India,Gujarat,Ahmedabad,"Rakhial, Ahmedabad - IITM",21-04-2026 17:00,23.016834,72.625775,NH3,2,12,3
India,Delhi,Delhi,"Shadipur, Delhi - CPCB",21-04-2026 17:00,28.6514781,77.1473105,OZONE,9,40,34
India,Delhi,Delhi,"Sirifort, Delhi - CPCB",21-04-2026 17:00,28.5504249,77.2159377,CO,4,42,15
India,Delhi,Delhi,"Sonia Vihar, Delhi - DPCC",21-04-2026 17:00,28.710508,77.249485,SO2,3,55,22
India,Delhi,Delhi,"Sri Aurobindo Marg, Delhi - DPCC",21-04-2026 17:00,28.531346,77.190156,NO2,NA,NA,NA
India,Delhi,Delhi,"Sri Aurobindo Marg, Delhi - DPCC",21-04-2026 17:00,28.531346,77.190156,CO,13,45,19
India,Delhi,Delhi,"Sri Aurobindo Marg, Delhi - DPCC",21-04-2026 17:00,28.531346,77.190156,OZONE,2,116,105
India,Delhi,Delhi,"Talkatora Garden, Delhi - DPCC",21-04-2026 17:00,28.62181,77.1944633,PM2.5,32,334,118
India,Delhi,Delhi,"Talkatora Garden, Delhi - DPCC",21-04-2026 17:00,28.62181,77.1944633,CO,44,84,68
India,Delhi,Delhi,"Wazirpur, Delhi - DPCC",21-04-2026 17:00,28.699793,77.165453,NO2,58,139,93
India,Gujarat,Ahmedabad,"SAC ISRO Bopal, Ahmedabad - IITM",21-04-2026 17:00,23.041137,72.456691,NO2,4,53,18
India,Gujarat,Ahmedabad,"SAC ISRO Bopal, Ahmedabad - IITM",21-04-2026 17:00,23.041137,72.456691,NH3,1,7,4
India,Gujarat,Ahmedabad,"SAC ISRO Satellite, Ahmedabad - IITM",21-04-2026 17:00,23.023389,72.515201,PM2.5,45,153,85
India,Gujarat,Ahmedabad,"SAC ISRO Satellite, Ahmedabad - IITM",21-04-2026 17:00,23.023389,72.515201,NH3,1,10,4
India,Gujarat,Ahmedabad,"SVPI Airport Hansol, Ahmedabad - IITM",21-04-2026 17:00,23.076793,72.627874,SO2,6,52,18
India,Gujarat,Ahmedabad,"SVPI Airport Hansol, Ahmedabad - IITM",21-04-2026 17:00,23.076793,72.627874,OZONE,4,77,64
India,Gujarat,Gandhinagar,"GIFT City, Gandhinagar - IITM",21-04-2026 17:00,23.163798,72.677768,NO2,18,68,32
India,Gujarat,Gandhinagar,"GIFT City, Gandhinagar - IITM",21-04-2026 17:00,23.163798,72.677768,OZONE,4,77,48
India,Gujarat,Gandhinagar,"IIPHG Lekawada, Gandhinagar - IITM",21-04-2026 17:00,23.243639,72.68994,PM10,69,116,93
India,Delhi,Delhi,"Najafgarh, Delhi - DPCC",21-04-2026 17:00,28.570173,76.933762,SO2,7,106,32
India,Delhi,Delhi,"Najafgarh, Delhi - DPCC",21-04-2026 17:00,28.570173,76.933762,CO,12,109,21
India,Delhi,Delhi,"Najafgarh, Delhi - DPCC",21-04-2026 17:00,28.570173,76.933762,OZONE,3,55,52
India,Delhi,Delhi,"Narela, Delhi - DPCC",21-04-2026 17:00,28.822836,77.101981,NH3,9,10,10
India,Delhi,Delhi,"Nehru Nagar, Delhi - DPCC",21-04-2026 17:00,28.56789,77.250515,PM2.5,32,320,112
India,Delhi,Delhi,"North Campus, DU, Delhi - IMD",21-04-2026 17:00,28.6573814,77.1585447,PM10,80,324,168
India,Delhi,Delhi,"North Campus, DU, Delhi - IMD",21-04-2026 17:00,28.6573814,77.1585447,NO2,6,77,40
India,Delhi,Delhi,"Okhla Phase-2, Delhi - DPCC",21-04-2026 17:00,28.530785,77.271255,OZONE,3,53,45
India,Delhi,Delhi,"Patparganj, Delhi - DPCC",21-04-2026 17:00,28.623763,77.287209,CO,34,106,44
India,Gujarat,Gandhinagar,"Sector-10, Gandhinagar - GPCB",21-04-2026 17:00,23.221714,72.654328,PM10,61,127,88
India,Gujarat,Gandhinagar,"Sector-10, Gandhinagar - GPCB",21-04-2026 17:00,23.221714,72.654328,CO,18,44,24
India,Gujarat,Nandesari,"GIDC, Nandesari - Nandesari Ind. Association",21-04-2026 17:00,22.410802,73.097923,PM10,52,225,115
India,Gujarat,Rajkot,"Mavdi, Rajkot - Nexteng Enviro ",21-04-2026 17:00,22.248853,70.776774,NO2,7,19,11
India,Gujarat,Rajkot,"Mavdi, Rajkot - Nexteng Enviro ",21-04-2026 17:00,22.248853,70.776774,OZONE,8,16,13
India,Gujarat,Surat,"Katargam, Surat - Nexteng Enviro",21-04-2026 17:00,21.217779,72.834787,PM10,55,114,78
India,Delhi,Delhi,"Punjabi Bagh, Delhi - DPCC",21-04-2026 17:00,28.674045,77.131023,CO,41,78,49
India,Delhi,Delhi,"Punjabi Bagh, Delhi - DPCC",21-04-2026 17:00,28.674045,77.131023,OZONE,16,92,81
India,Delhi,Delhi,"Pusa, Delhi - IMD",21-04-2026 17:00,28.63611,77.173332,NO2,3,54,25
India,Delhi,Delhi,"R K Puram, Delhi - DPCC",21-04-2026 17:00,28.563262,77.186937,NH3,12,25,15
India,Delhi,Delhi,"Rohini, Delhi - DPCC",21-04-2026 17:00,28.732528,77.11992,PM2.5,32,368,134
India,Delhi,Delhi,"Rohini, Delhi - DPCC",21-04-2026 17:00,28.732528,77.11992,NH3,6,9,7
India,Delhi,Delhi,"Shadipur, Delhi - CPCB",21-04-2026 17:00,28.6514781,77.1473105,CO,40,110,70
India,Delhi,Delhi,"Major Dhyan Chand National Stadium, Delhi - DPCC",21-04-2026 17:00,28.611281,77.237738,OZONE,2,81,67
India,Delhi,Delhi,"NSIT Dwarka, Delhi - CPCB",21-04-2026 17:00,28.60909,77.0325413,PM10,103,228,162
India,Delhi,Delhi,"NSUT Jaffarpur, Delhi - DPCC",21-04-2026 17:00,28.594004,76.909423,PM10,113,281,177
India,Delhi,Delhi,"NSUT Jaffarpur, Delhi - DPCC",21-04-2026 17:00,28.594004,76.909423,NH3,5,6,5
India,Delhi,Delhi,"Najafgarh, Delhi - DPCC",21-04-2026 17:00,28.570173,76.933762,NO2,13,68,40
India,Gujarat,Surat,"Science Center, Surat - SMC",21-04-2026 17:00,21.170046,72.795405,PM10,57,131,82
India,Gujarat,Surat,"Science Center, Surat - SMC",21-04-2026 17:00,21.170046,72.795405,SO2,17,20,18
India,Gujarat,Vadodara,"Bapunagar, Vadodara - Nexteng Enviro",21-04-2026 17:00,22.320153,73.216285,PM2.5,63,291,125
India,Gujarat,Vapi,"Phase-1 GIDC, Vapi - GPCB",21-04-2026 17:00,20.362421,72.918013,PM2.5,62,153,92
India,Haryana,Ballabgarh,"Nathu Colony, Ballabgarh - HSPCB",21-04-2026 17:00,28.3419248,77.319699,PM10,194,403,294
India,Haryana,Jind,"Police Lines, Jind - HSPCB",21-04-2026 17:00,29.307814,76.337619,PM2.5,84,308,185
India,Haryana,Jind,"Police Lines, Jind - HSPCB",21-04-2026 17:00,29.307814,76.337619,CO,5,27,6
India,Haryana,Karnal,"Sector-12, Karnal - HSPCB",21-04-2026 17:00,29.6953,77.0027,PM2.5,70,152,104
India,Haryana,Karnal,"Sector-12, Karnal - HSPCB",21-04-2026 17:00,29.6953,77.0027,SO2,5,11,9
India,Haryana,Karnal,"Sector-12, Karnal - HSPCB",21-04-2026 17:00,29.6953,77.0027,CO,12,14,13
India,Haryana,Kurukshetra,"Sector-7, Kurukshetra - HSPCB",21-04-2026 17:00,29.966942,76.875879,PM10,146,231,185
India,Haryana,Kurukshetra,"Sector-7, Kurukshetra - HSPCB",21-04-2026 17:00,29.966942,76.875879,SO2,2,25,18
India,Haryana,Mandikhera,"General Hospital, Mandikhera(Nuh) - HSPCB",21-04-2026 17:00,27.9002,76.9938,OZONE,25,32,28
India,Haryana,Manesar,"Sector-2 IMT, Manesar - HSPCB",21-04-2026 17:00,28.360699,76.93609,PM10,59,156,113
India,Haryana,Bhiwani,"H.B. Colony, Bhiwani - HSPCB",21-04-2026 17:00,28.806223,76.141105,PM10,26,36,28
India,Haryana,Bhiwani,"H.B. Colony, Bhiwani - HSPCB",21-04-2026 17:00,28.806223,76.141105,SO2,1,13,8
India,Haryana,Bhiwani,"H.B. Colony, Bhiwani - HSPCB",21-04-2026 17:00,28.806223,76.141105,CO,3,10,7
India,Haryana,Charkhi Dadri,"Mini Secretariat, Charkhi Dadri - HSPCB",21-04-2026 17:00,28.593883,76.270653,PM10,106,204,159
India,Haryana,Charkhi Dadri,"Mini Secretariat, Charkhi Dadri - HSPCB",21-04-2026 17:00,28.593883,76.270653,NH3,5,8,6
India,Haryana,Faridabad,"New Industrial Town, Faridabad - HSPCB",21-04-2026 17:00,28.39072,77.30059,SO2,8,8,8
India,Haryana,Faridabad,"Sector 11, Faridabad - HSPCB",21-04-2026 17:00,28.376058,77.315741,NO2,29,33,31
India,Karnataka,Bengaluru,"Jayanagar 5th Block, Bengaluru - KSPCB",21-04-2026 17:00,12.920984,77.584908,OZONE,26,71,58
India,Karnataka,Bengaluru,"Kasturi Nagar, Bengaluru - KSPCB",21-04-2026 17:00,13.003872,77.664217,PM10,NA,NA,NA
India,Karnataka,Bengaluru,"Kasturi Nagar, Bengaluru - KSPCB",21-04-2026 17:00,13.003872,77.664217,NO2,NA,NA,NA
India,Karnataka,Bengaluru,"Kasturi Nagar, Bengaluru - KSPCB",21-04-2026 17:00,13.003872,77.664217,CO,NA,NA,NA
India,Karnataka,Bengaluru,"RVCE-Mailasandra, Bengaluru - KSPCB",21-04-2026 17:00,12.921418,77.502466,PM10,24,143,94
India,Karnataka,Bengaluru,"Sanegurava Halli, Bengaluru - KSPCB",21-04-2026 17:00,12.990328,77.5431385,PM10,NA,NA,NA
India,Karnataka,Bengaluru,"Shivapura_Peenya, Bengaluru - KSPCB",21-04-2026 17:00,13.0246342,77.5080115,PM2.5,28,43,33
India,Jharkhand,Dhanbad,"Sardar Patel Nagar, Dhanbad - JSPCB",21-04-2026 17:00,23.80569,86.44268,SO2,NA,NA,NA
India,Jharkhand,Jorapokhar,"Tata Stadium, Jorapokhar - JSPCB",21-04-2026 17:00,23.707909,86.41467,PM10,54,316,105
India,Jharkhand,Jorapokhar,"Tata Stadium, Jorapokhar - JSPCB",21-04-2026 17:00,23.707909,86.41467,OZONE,22,22,22
India,Karnataka,Bagalkot,"Vidayagiri, Bagalkot - KSPCB",21-04-2026 17:00,16.172806,75.659694,SO2,3,7,7
India,Karnataka,Bagalkot,"Vidayagiri, Bagalkot - KSPCB",21-04-2026 17:00,16.172806,75.659694,CO,2,50,26
India,Karnataka,Belgaum,"Ramteerth Nagar, Belgaum - KSPCB",21-04-2026 17:00,15.888653,74.541751,NH3,2,12,8
India,Haryana,Sirsa,"F-Block, Sirsa - HSPCB",21-04-2026 17:00,29.5364,75.0158,NO2,15,20,18
India,Haryana,Sirsa,"F-Block, Sirsa - HSPCB",21-04-2026 17:00,29.5364,75.0158,OZONE,50,144,108
India,Haryana,Sonipat,"Murthal, Sonipat - HSPCB",21-04-2026 17:00,29.0272,77.0621,CO,43,52,47
India,Haryana,Yamuna Nagar,"Gobind Pura, Yamuna Nagar - HSPCB",21-04-2026 17:00,30.1480566,77.2893471,NO2,11,45,21
India,Haryana,Yamuna Nagar,"Gobind Pura, Yamuna Nagar - HSPCB",21-04-2026 17:00,30.1480566,77.2893471,NH3,1,6,3
India,Karnataka,Bengaluru,"Bapuji Nagar, Bengaluru - KSPCB",21-04-2026 17:00,12.951913,77.539784,PM10,56,132,96
India,Karnataka,Bengaluru,"Bapuji Nagar, Bengaluru - KSPCB",21-04-2026 17:00,12.951913,77.539784,SO2,11,35,23
India,Karnataka,Bengaluru,"City Railway Station, Bengaluru - KSPCB",21-04-2026 17:00,12.9756843,77.5660749,CO,56,64,60
India,Karnataka,Bengaluru,"Jayanagar 5th Block, Bengaluru - KSPCB",21-04-2026 17:00,12.920984,77.584908,SO2,6,42,26
India,Haryana,Gurugram,"Sector-51, Gurugram - HSPCB",21-04-2026 17:00,28.4227,77.0667,PM2.5,166,347,276
India,Haryana,Gurugram,"Sector-51, Gurugram - HSPCB",21-04-2026 17:00,28.4227,77.0667,NH3,6,10,8
India,Haryana,Gurugram,"Teri Gram, Gurugram - HSPCB",21-04-2026 17:00,28.4275,77.1465,PM2.5,60,239,123
India,Haryana,Hisar,"Urban Estate-II, Hisar - HSPCB",21-04-2026 17:00,29.14056,75.744941,CO,25,42,26
India,Haryana,Manesar,"Sector-2 IMT, Manesar - HSPCB",21-04-2026 17:00,28.360699,76.93609,OZONE,10,50,38
